[
  {
    "LOCODE": "ALVOA",
    "PortCountry": "Albania",
    "PortName": "Vlore",
    "PortNo": 9309,
    "PortArea": "Albania",
    "PortRegion": "Mediterranean - Black Sea",
    "Latitude": 40.449,
    "Longitude": 19.483,
    "CountryCode": "AL"
  },
  {
    "LOCODE": "ALDRZ",
    "PortCountry": "Albania",
    "PortName": "Durres",
    "PortNo": 246,
    "PortArea": "Tirana, Albania",
    "PortRegion": "Mediterranean - Black Sea",
    "Latitude": 41.317,
    "Longitude": 19.455,
    "CountryCode": "AL"
  },
  {
    "LOCODE": "ALSAR",
    "PortCountry": "Albania",
    "PortName": "Durres",
    "PortNo": 312,
    "PortArea": "Albania",
    "PortRegion": "Mediterranean - Black Sea",
    "Latitude": 39.872,
    "Longitude": 20.004,
    "CountryCode": "AL"
  },
  {
    "LOCODE": "N/A",
    "PortCountry": "Algeria",
    "PortName": "Oran",
    "PortNo": 3500,
    "PortArea": "Algeria",
    "PortRegion": "Mediterranean - Black Sea",
    "Latitude": 35.714,
    "Longitude": -0.633,
    "CountryCode": "DZ"
  },
  {
    "LOCODE": "DZBJA",
    "PortCountry": "Algeria",
    "PortName": "Bejaia",
    "PortNo": 13351,
    "PortArea": "Algeria",
    "PortRegion": "Mediterranean - Black Sea",
    "Latitude": 36.754,
    "Longitude": 5.091,
    "CountryCode": "DZ"
  },
  {
    "LOCODE": "DZSKI",
    "PortCountry": "Algeria",
    "PortName": "Skikda",
    "PortNo": 1289,
    "PortArea": "Algeria",
    "PortRegion": "Mediterranean - Black Sea",
    "Latitude": 36.889,
    "Longitude": 6.907,
    "CountryCode": "DZ"
  },
  {
    "LOCODE": "N/A",
    "PortCountry": "Algeria",
    "PortName": "Algiers",
    "PortNo": 1425,
    "PortArea": "Algeria",
    "PortRegion": "Mediterranean - Black Sea",
    "Latitude": 36.781,
    "Longitude": 3.067,
    "CountryCode": "DZ"
  },
  {
    "LOCODE": "AOLAD",
    "PortCountry": "Angola",
    "PortName": "Luanda",
    "PortNo": 991,
    "PortArea": "Angola",
    "PortRegion": "Africa - Indian Ocean Islands",
    "Latitude": -8.795,
    "Longitude": 13.235,
    "CountryCode": "AO"
  },
  {
    "LOCODE": "N/A",
    "PortCountry": "Antarctica",
    "PortName": "Drake Passage",
    "PortNo": 517,
    "PortArea": "Antarctica",
    "PortRegion": "Arctic - Antarctica",
    "Latitude": -59.194,
    "Longitude": -63.609,
    "CountryCode": "AQ"
  },
  {
    "LOCODE": "CASJF",
    "PortCountry": "Antigua_and_Barbuda",
    "PortName": "St Johns Antigua",
    "PortNo": 37,
    "PortArea": "RCI Royal Beach Club",
    "PortRegion": "Bahamas - Caribbean - Bermuda",
    "Latitude": 17.125,
    "Longitude": -61.86,
    "CountryCode": "AG"
  },
  {
    "LOCODE": "N/A",
    "PortCountry": "Antigua_and_Barbuda",
    "PortName": "Barbuda Island",
    "PortNo": 9067,
    "PortArea": "Codrington",
    "PortRegion": "Bahamas - Caribbean - Bermuda",
    "Latitude": 17.013,
    "Longitude": -61.77,
    "CountryCode": "AG"
  },
  {
    "LOCODE": "ARBUE",
    "PortCountry": "Argentina",
    "PortName": "Buenos Aires",
    "PortNo": 103,
    "PortArea": "Argentina",
    "PortRegion": "South America",
    "Latitude": -34.583,
    "Longitude": -58.375,
    "CountryCode": "AR"
  },
  {
    "LOCODE": "ARPMY",
    "PortCountry": "Argentina",
    "PortName": "Puerto Madryn",
    "PortNo": 503,
    "PortArea": "Argentina",
    "PortRegion": "South America",
    "Latitude": -42.767,
    "Longitude": -65.029,
    "CountryCode": "AR"
  },
  {
    "LOCODE": "N/A",
    "PortCountry": "Argentina",
    "PortName": "Isla de los Estados Argentina",
    "PortNo": 11858,
    "PortArea": "Staten Island",
    "PortRegion": "South America",
    "Latitude": -54.762,
    "Longitude": -64.311,
    "CountryCode": "AR"
  },
  {
    "LOCODE": "ARMDQ",
    "PortCountry": "Argentina",
    "PortName": "Mar del Plata",
    "PortNo": 12710,
    "PortArea": "Argentina",
    "PortRegion": "South America",
    "Latitude": -38.036,
    "Longitude": -57.53,
    "CountryCode": "AR"
  },
  {
    "LOCODE": "ARUSH",
    "PortCountry": "Argentina",
    "PortName": "Ushuaia",
    "PortNo": 102,
    "PortArea": "Argentina",
    "PortRegion": "South America",
    "Latitude": -54.807,
    "Longitude": -68.303,
    "CountryCode": "AR"
  },
  {
    "LOCODE": "AUTIS",
    "PortCountry": "Australia",
    "PortName": "Thursday Island",
    "PortNo": 779,
    "PortArea": "Queensland Australia",
    "PortRegion": "Australia - New Zealand - Pacific Ocean Islands",
    "Latitude": -10.586,
    "Longitude": 142.22,
    "CountryCode": "AU"
  },
  {
    "LOCODE": "AUMEL",
    "PortCountry": "Australia",
    "PortName": "Melbourne",
    "PortNo": 19,
    "PortArea": "Victoria Australia",
    "PortRegion": "Australia - New Zealand - Pacific Ocean Islands",
    "Latitude": -37.842,
    "Longitude": 144.926,
    "CountryCode": "AU"
  },
  {
    "LOCODE": "AUADL",
    "PortCountry": "Australia",
    "PortName": "Adelaide",
    "PortNo": 613,
    "PortArea": "South Australia",
    "PortRegion": "Australia - New Zealand - Pacific Ocean Islands",
    "Latitude": -34.841,
    "Longitude": 138.502,
    "CountryCode": "AU"
  },
  {
    "LOCODE": "AUNTL",
    "PortCountry": "Australia",
    "PortName": "Newcastle NSW",
    "PortNo": 5467,
    "PortArea": "NSW Australia",
    "PortRegion": "Australia - New Zealand - Pacific Ocean Islands",
    "Latitude": -32.924,
    "Longitude": 151.781,
    "CountryCode": "AU"
  },
  {
    "LOCODE": "AUCNS",
    "PortCountry": "Australia",
    "PortName": "Cairns",
    "PortNo": 575,
    "PortArea": "Queensland Australia",
    "PortRegion": "Australia - New Zealand - Pacific Ocean Islands",
    "Latitude": -16.92,
    "Longitude": 145.783,
    "CountryCode": "AU"
  },
  {
    "LOCODE": "AUWSY",
    "PortCountry": "Australia",
    "PortName": "Airlie Beach",
    "PortNo": 847,
    "PortArea": "Queensland Australia",
    "PortRegion": "Australia - New Zealand - Pacific Ocean Islands",
    "Latitude": -20.263,
    "Longitude": 148.72,
    "CountryCode": "AU"
  },
  {
    "LOCODE": "AUBNE",
    "PortCountry": "Australia",
    "PortName": "Brisbane",
    "PortNo": 22,
    "PortArea": "Queensland Australia",
    "PortRegion": "Australia - New Zealand - Pacific Ocean Islands",
    "Latitude": -27.385,
    "Longitude": 153.165,
    "CountryCode": "AU"
  },
  {
    "LOCODE": "AUSYD",
    "PortCountry": "Australia",
    "PortName": "Sydney",
    "PortNo": 24,
    "PortArea": "NSW Australia",
    "PortRegion": "Australia - New Zealand - Pacific Ocean Islands",
    "Latitude": -33.858,
    "Longitude": 151.211,
    "CountryCode": "AU"
  },
  {
    "LOCODE": "USPOA",
    "PortCountry": "Australia",
    "PortName": "Port Arthur",
    "PortNo": 640,
    "PortArea": "Tasmania Australia",
    "PortRegion": "Australia - New Zealand - Pacific Ocean Islands",
    "Latitude": -43.147,
    "Longitude": 147.853,
    "CountryCode": "AU"
  },
  {
    "LOCODE": "AUMLL",
    "PortCountry": "Australia",
    "PortName": "Mooloolaba",
    "PortNo": 1443,
    "PortArea": "Queensland Australia",
    "PortRegion": "Australia - New Zealand - Pacific Ocean Islands",
    "Latitude": -26.679,
    "Longitude": 153.129,
    "CountryCode": "AU"
  },
  {
    "LOCODE": "N/A",
    "PortCountry": "Australia",
    "PortName": "Moreton Island",
    "PortNo": 1422,
    "PortArea": "Queensland Australia",
    "PortRegion": "Australia - New Zealand - Pacific Ocean Islands",
    "Latitude": -27.158,
    "Longitude": 153.357,
    "CountryCode": "AU"
  },
  {
    "LOCODE": "AUQDN",
    "PortCountry": "Australia",
    "PortName": "Eden",
    "PortNo": 1519,
    "PortArea": "NSW Australia",
    "PortRegion": "Australia - New Zealand - Pacific Ocean Islands",
    "Latitude": -37.072,
    "Longitude": 149.908,
    "CountryCode": "AU"
  },
  {
    "LOCODE": "N/A",
    "PortCountry": "Australia",
    "PortName": "Macquarie Island Tasmania",
    "PortNo": 1851,
    "PortArea": "Australia",
    "PortRegion": "Australia - New Zealand - Pacific Ocean Islands",
    "Latitude": -54.621,
    "Longitude": 158.856,
    "CountryCode": "AU"
  },
  {
    "LOCODE": "N/A",
    "PortCountry": "Australia",
    "PortName": "Wyndham WA",
    "PortNo": 1867,
    "PortArea": "Kimberley, Western Australia",
    "PortRegion": "Australia - New Zealand - Pacific Ocean Islands",
    "Latitude": -15.455,
    "Longitude": 128.087,
    "CountryCode": "AU"
  },
  {
    "LOCODE": "N/A",
    "PortCountry": "Australia",
    "PortName": "Mornington Island QLD",
    "PortNo": 1958,
    "PortArea": "Queensland Australia",
    "PortRegion": "Australia - New Zealand - Pacific Ocean Islands",
    "Latitude": -16.644,
    "Longitude": 139.388,
    "CountryCode": "AU"
  },
  {
    "LOCODE": "N/A",
    "PortCountry": "Australia",
    "PortName": "Phillip Island",
    "PortNo": 1959,
    "PortArea": "Victoria Australia",
    "PortRegion": "Australia - New Zealand - Pacific Ocean Islands",
    "Latitude": -38.444,
    "Longitude": 145.239,
    "CountryCode": "AU"
  },
  {
    "LOCODE": "AUGLT",
    "PortCountry": "Australia",
    "PortName": "Gladstone QLD",
    "PortNo": 3220,
    "PortArea": "Queensland Australia",
    "PortRegion": "Australia - New Zealand - Pacific Ocean Islands",
    "Latitude": -23.828,
    "Longitude": 151.246,
    "CountryCode": "AU"
  },
  {
    "LOCODE": "N/A",
    "PortCountry": "Australia",
    "PortName": "Bigge Island WA",
    "PortNo": 3478,
    "PortArea": "Kimberley, Western Australia",
    "PortRegion": "Australia - New Zealand - Pacific Ocean Islands",
    "Latitude": -14.547,
    "Longitude": 125.16,
    "CountryCode": "AU"
  },
  {
    "LOCODE": "N/A",
    "PortCountry": "Australia",
    "PortName": "Garden Island WA",
    "PortNo": 3535,
    "PortArea": "Kimberley, Western Australia",
    "PortRegion": "Australia - New Zealand - Pacific Ocean Islands",
    "Latitude": -32.229,
    "Longitude": 115.689,
    "CountryCode": "AU"
  },
  {
    "LOCODE": "N/A",
    "PortCountry": "Australia",
    "PortName": "Dunk Island",
    "PortNo": 3536,
    "PortArea": "Queensland Australia",
    "PortRegion": "Australia - New Zealand - Pacific Ocean Islands",
    "Latitude": -17.936,
    "Longitude": 146.138,
    "CountryCode": "AU"
  },
  {
    "LOCODE": "N/A",
    "PortCountry": "Australia",
    "PortName": "Elcho Island",
    "PortNo": 3538,
    "PortArea": "NT Australia",
    "PortRegion": "Australia - New Zealand - Pacific Ocean Islands",
    "Latitude": -12.022,
    "Longitude": 135.564,
    "CountryCode": "AU"
  },
  {
    "LOCODE": "N/A",
    "PortCountry": "Australia",
    "PortName": "Fitzroy Island",
    "PortNo": 3544,
    "PortArea": "Queensland Australia",
    "PortRegion": "Australia - New Zealand - Pacific Ocean Islands",
    "Latitude": -16.931,
    "Longitude": 145.989,
    "CountryCode": "AU"
  },
  {
    "LOCODE": "N/A",
    "PortCountry": "Australia",
    "PortName": "Hinchinbrook Island",
    "PortNo": 3547,
    "PortArea": "Queensland Australia",
    "PortRegion": "Australia - New Zealand - Pacific Ocean Islands",
    "Latitude": -18.336,
    "Longitude": 146.226,
    "CountryCode": "AU"
  },
  {
    "LOCODE": "N/A",
    "PortCountry": "Australia",
    "PortName": "Nhulunbuy",
    "PortNo": 3562,
    "PortArea": "NT Australia",
    "PortRegion": "Australia - New Zealand - Pacific Ocean Islands",
    "Latitude": -12.18,
    "Longitude": 136.791,
    "CountryCode": "AU"
  },
  {
    "LOCODE": "AUBRT",
    "PortCountry": "Australia",
    "PortName": "Tiwi Islands Australia",
    "PortNo": 3593,
    "PortArea": "Melville-Bathurst, NT Australia",
    "PortRegion": "Australia - New Zealand - Pacific Ocean Islands",
    "Latitude": -11.195,
    "Longitude": 130.679,
    "CountryCode": "AU"
  },
  {
    "LOCODE": "N/A",
    "PortCountry": "Australia",
    "PortName": "Port Kembla",
    "PortNo": 5085,
    "PortArea": "Wollongong, NSW Australia",
    "PortRegion": "Australia - New Zealand - Pacific Ocean Islands",
    "Latitude": -34.467,
    "Longitude": 150.901,
    "CountryCode": "AU"
  },
  {
    "LOCODE": "N/A",
    "PortCountry": "Australia",
    "PortName": "Fraser Island",
    "PortNo": 5227,
    "PortArea": "Queensland Australia",
    "PortRegion": "Australia - New Zealand - Pacific Ocean Islands",
    "Latitude": -25.391,
    "Longitude": 153.034,
    "CountryCode": "AU"
  },
  {
    "LOCODE": "AUBUS",
    "PortCountry": "Australia",
    "PortName": "Busselton WA",
    "PortNo": 5490,
    "PortArea": "Margaret River, Western Australia",
    "PortRegion": "Australia - New Zealand - Pacific Ocean Islands",
    "Latitude": -33.731,
    "Longitude": 115.603,
    "CountryCode": "AU"
  },
  {
    "LOCODE": "N/A",
    "PortCountry": "Australia",
    "PortName": "Portland",
    "PortNo": 9069,
    "PortArea": "Victoria Australia",
    "PortRegion": "Australia - New Zealand - Pacific Ocean Islands",
    "Latitude": -38.344,
    "Longitude": 141.61,
    "CountryCode": "AU"
  },
  {
    "LOCODE": "N/A",
    "PortCountry": "Australia",
    "PortName": "Lacepede Islands",
    "PortNo": 9099,
    "PortArea": "Kimberley, Western Australia",
    "PortRegion": "Australia - New Zealand - Pacific Ocean Islands",
    "Latitude": -16.865,
    "Longitude": 122.154,
    "CountryCode": "AU"
  },
  {
    "LOCODE": "N/A",
    "PortCountry": "Australia",
    "PortName": "Buccaneer Archipelago",
    "PortNo": 9101,
    "PortArea": "Kimberley, Western Australia",
    "PortRegion": "Australia - New Zealand - Pacific Ocean Islands",
    "Latitude": -16.205,
    "Longitude": 123.413,
    "CountryCode": "AU"
  },
  {
    "LOCODE": "N/A",
    "PortCountry": "Australia",
    "PortName": "Yawajaba-Montgomery Island",
    "PortNo": 9103,
    "PortArea": "Kimberley, Western Australia",
    "PortRegion": "Australia - New Zealand - Pacific Ocean Islands",
    "Latitude": -15.95,
    "Longitude": 124.209,
    "CountryCode": "AU"
  },
  {
    "LOCODE": "N/A",
    "PortCountry": "Australia",
    "PortName": "Pelorus Island",
    "PortNo": 9153,
    "PortArea": "Queensland Australia",
    "PortRegion": "Australia - New Zealand - Pacific Ocean Islands",
    "Latitude": -18.49,
    "Longitude": 146.692,
    "CountryCode": "AU"
  },
  {
    "LOCODE": "N/A",
    "PortCountry": "Australia",
    "PortName": "Mannum SA",
    "PortNo": 9520,
    "PortArea": "South Australia",
    "PortRegion": "Australia - New Zealand - Pacific Ocean Islands",
    "Latitude": -34.914,
    "Longitude": 139.313,
    "CountryCode": "AU"
  },
  {
    "LOCODE": "N/A",
    "PortCountry": "Australia",
    "PortName": "Maria Island Tasmania",
    "PortNo": 10490,
    "PortArea": "Australia",
    "PortRegion": "Australia - New Zealand - Pacific Ocean Islands",
    "Latitude": -42.577,
    "Longitude": 148.063,
    "CountryCode": "AU"
  },
  {
    "LOCODE": "N/A",
    "PortCountry": "Australia",
    "PortName": "Devonport Tasmania",
    "PortNo": 11829,
    "PortArea": "Australia",
    "PortRegion": "Australia - New Zealand - Pacific Ocean Islands",
    "Latitude": -41.178,
    "Longitude": 146.365,
    "CountryCode": "AU"
  },
  {
    "LOCODE": "N/A",
    "PortCountry": "Australia",
    "PortName": "Batemans Bay NSW",
    "PortNo": 12011,
    "PortArea": "NSW Australia",
    "PortRegion": "Australia - New Zealand - Pacific Ocean Islands",
    "Latitude": -35.712,
    "Longitude": 150.19,
    "CountryCode": "AU"
  },
  {
    "LOCODE": "N/A",
    "PortCountry": "Australia",
    "PortName": "Beauty Point-Launceston",
    "PortNo": 13224,
    "PortArea": "Tasmania Australia",
    "PortRegion": "Australia - New Zealand - Pacific Ocean Islands",
    "Latitude": -41.155,
    "Longitude": 146.826,
    "CountryCode": "AU"
  },
  {
    "LOCODE": "N/A",
    "PortCountry": "Australia",
    "PortName": "Bruny Island Tasmania",
    "PortNo": 13273,
    "PortArea": "Australia",
    "PortRegion": "Australia - New Zealand - Pacific Ocean Islands",
    "Latitude": -43.32,
    "Longitude": 147.339,
    "CountryCode": "AU"
  },
  {
    "LOCODE": "AUHBA",
    "PortCountry": "Australia",
    "PortName": "Hobart",
    "PortNo": 17,
    "PortArea": "Tasmania Australia",
    "PortRegion": "Australia - New Zealand - Pacific Ocean Islands",
    "Latitude": -42.879,
    "Longitude": 147.336,
    "CountryCode": "AU"
  },
  {
    "LOCODE": "AUFRE",
    "PortCountry": "Australia",
    "PortName": "Fremantle",
    "PortNo": 18,
    "PortArea": "Perth, Western Australia",
    "PortRegion": "Australia - New Zealand - Pacific Ocean Islands",
    "Latitude": -32.054,
    "Longitude": 115.746,
    "CountryCode": "AU"
  },
  {
    "LOCODE": "AUDRW",
    "PortCountry": "Australia",
    "PortName": "Darwin",
    "PortNo": 159,
    "PortArea": "NT Australia",
    "PortRegion": "Australia - New Zealand - Pacific Ocean Islands",
    "Latitude": -12.472,
    "Longitude": 130.848,
    "CountryCode": "AU"
  },
  {
    "LOCODE": "AUHTI",
    "PortCountry": "Australia",
    "PortName": "Hamilton Island QLD",
    "PortNo": 574,
    "PortArea": "Queensland Australia",
    "PortRegion": "Australia - New Zealand - Pacific Ocean Islands",
    "Latitude": -20.35,
    "Longitude": 148.957,
    "CountryCode": "AU"
  },
  {
    "LOCODE": "AUPTI",
    "PortCountry": "Australia",
    "PortName": "Port Douglas",
    "PortNo": 599,
    "PortArea": "Queensland Australia",
    "PortRegion": "Australia - New Zealand - Pacific Ocean Islands",
    "Latitude": -16.481,
    "Longitude": 145.459,
    "CountryCode": "AU"
  },
  {
    "LOCODE": "AUALH",
    "PortCountry": "Australia",
    "PortName": "Albany WA",
    "PortNo": 614,
    "PortArea": "Western Australia",
    "PortRegion": "Australia - New Zealand - Pacific Ocean Islands",
    "Latitude": -35.025,
    "Longitude": 117.889,
    "CountryCode": "AU"
  },
  {
    "LOCODE": "AUGET",
    "PortCountry": "Australia",
    "PortName": "Geraldton",
    "PortNo": 616,
    "PortArea": "Western Australia",
    "PortRegion": "Australia - New Zealand - Pacific Ocean Islands",
    "Latitude": -28.767,
    "Longitude": 114.602,
    "CountryCode": "AU"
  },
  {
    "LOCODE": "N/A",
    "PortCountry": "Australia",
    "PortName": "Sherrard Island",
    "PortNo": 635,
    "PortArea": "Queensland Australia",
    "PortRegion": "Australia - New Zealand - Pacific Ocean Islands",
    "Latitude": -12.984,
    "Longitude": 143.613,
    "CountryCode": "AU"
  },
  {
    "LOCODE": "GBEXM",
    "PortCountry": "Australia",
    "PortName": "Exmouth WA",
    "PortNo": 636,
    "PortArea": "Western Australia",
    "PortRegion": "Australia - New Zealand - Pacific Ocean Islands",
    "Latitude": -21.943,
    "Longitude": 114.134,
    "CountryCode": "AU"
  },
  {
    "LOCODE": "AUEPR",
    "PortCountry": "Australia",
    "PortName": "Esperance WA",
    "PortNo": 637,
    "PortArea": "Western Australia",
    "PortRegion": "Australia - New Zealand - Pacific Ocean Islands",
    "Latitude": -33.865,
    "Longitude": 121.9,
    "CountryCode": "AU"
  },
  {
    "LOCODE": "AUPEA",
    "PortCountry": "Australia",
    "PortName": "Kangaroo Island",
    "PortNo": 638,
    "PortArea": "Penneshaw, South Australia",
    "PortRegion": "Australia - New Zealand - Pacific Ocean Islands",
    "Latitude": -35.714,
    "Longitude": 137.945,
    "CountryCode": "AU"
  },
  {
    "LOCODE": "AUBWT",
    "PortCountry": "Australia",
    "PortName": "Burnie",
    "PortNo": 639,
    "PortArea": "Tasmania Australia",
    "PortRegion": "Australia - New Zealand - Pacific Ocean Islands",
    "Latitude": -41.049,
    "Longitude": 145.915,
    "CountryCode": "AU"
  },
  {
    "LOCODE": "AULZR",
    "PortCountry": "Australia",
    "PortName": "Lizard Island QLD",
    "PortNo": 642,
    "PortArea": "Queensland Australia",
    "PortRegion": "Australia - New Zealand - Pacific Ocean Islands",
    "Latitude": -14.676,
    "Longitude": 145.458,
    "CountryCode": "AU"
  },
  {
    "LOCODE": "N/A",
    "PortCountry": "Australia",
    "PortName": "Great Barrier Reef",
    "PortNo": 646,
    "PortArea": "Queensland Australia",
    "PortRegion": "Australia - New Zealand - Pacific Ocean Islands",
    "Latitude": -19.7,
    "Longitude": 153.258,
    "CountryCode": "AU"
  },
  {
    "LOCODE": "AUGEX",
    "PortCountry": "Australia",
    "PortName": "Geelong",
    "PortNo": 690,
    "PortArea": "Victoria Australia",
    "PortRegion": "Australia - New Zealand - Pacific Ocean Islands",
    "Latitude": -38.14,
    "Longitude": 144.364,
    "CountryCode": "AU"
  },
  {
    "LOCODE": "AUCTN",
    "PortCountry": "Australia",
    "PortName": "Cooktown QLD",
    "PortNo": 780,
    "PortArea": "Queensland Australia",
    "PortRegion": "Australia - New Zealand - Pacific Ocean Islands",
    "Latitude": -15.466,
    "Longitude": 145.251,
    "CountryCode": "AU"
  },
  {
    "LOCODE": "AUBUY",
    "PortCountry": "Australia",
    "PortName": "Bunbury WA",
    "PortNo": 846,
    "PortArea": "Western Australia",
    "PortRegion": "Australia - New Zealand - Pacific Ocean Islands",
    "Latitude": -33.316,
    "Longitude": 115.645,
    "CountryCode": "AU"
  },
  {
    "LOCODE": "AUPHE",
    "PortCountry": "Australia",
    "PortName": "Port Hedland",
    "PortNo": 869,
    "PortArea": "Western Australia",
    "PortRegion": "Australia - New Zealand - Pacific Ocean Islands",
    "Latitude": -20.315,
    "Longitude": 118.577,
    "CountryCode": "AU"
  },
  {
    "LOCODE": "AUPLO",
    "PortCountry": "Australia",
    "PortName": "Port Lincoln",
    "PortNo": 1026,
    "PortArea": "South Australia",
    "PortRegion": "Australia - New Zealand - Pacific Ocean Islands",
    "Latitude": -34.716,
    "Longitude": 135.864,
    "CountryCode": "AU"
  },
  {
    "LOCODE": "N/A",
    "PortCountry": "Australia",
    "PortName": "Yorkeys Knob",
    "PortNo": 1092,
    "PortArea": "Queensland Australia",
    "PortRegion": "Australia - New Zealand - Pacific Ocean Islands",
    "Latitude": -16.8,
    "Longitude": 145.719,
    "CountryCode": "AU"
  },
  {
    "LOCODE": "N/A",
    "PortCountry": "Australia",
    "PortName": "Kimberley Coast",
    "PortNo": 1094,
    "PortArea": "Western Australia",
    "PortRegion": "Australia - New Zealand - Pacific Ocean Islands",
    "Latitude": -15.649,
    "Longitude": 123.783,
    "CountryCode": "AU"
  },
  {
    "LOCODE": "AUBME",
    "PortCountry": "Australia",
    "PortName": "Broome WA",
    "PortNo": 1095,
    "PortArea": "Kimberley, Western Australia",
    "PortRegion": "Australia - New Zealand - Pacific Ocean Islands",
    "Latitude": -17.989,
    "Longitude": 122.218,
    "CountryCode": "AU"
  },
  {
    "LOCODE": "AUTSV",
    "PortCountry": "Australia",
    "PortName": "Townsville QLD",
    "PortNo": 1144,
    "PortArea": "Queensland Australia",
    "PortRegion": "Australia - New Zealand - Pacific Ocean Islands",
    "Latitude": -19.249,
    "Longitude": 146.833,
    "CountryCode": "AU"
  },
  {
    "LOCODE": "NFNLK",
    "PortCountry": "Australia",
    "PortName": "Norfolk Island",
    "PortNo": 1237,
    "PortArea": "Australia",
    "PortRegion": "Australia - New Zealand - Pacific Ocean Islands",
    "Latitude": -29.056,
    "Longitude": 167.96,
    "CountryCode": "AU"
  },
  {
    "LOCODE": "N/A",
    "PortCountry": "Australia",
    "PortName": "Willis Island",
    "PortNo": 1418,
    "PortArea": "Coral Sea, Australia",
    "PortRegion": "Australia - New Zealand - Pacific Ocean Islands",
    "Latitude": -16.288,
    "Longitude": 149.965,
    "CountryCode": "AU"
  },
  {
    "LOCODE": "N/A",
    "PortCountry": "Austria",
    "PortName": "Weissenkirchen in der Wachau",
    "PortNo": 1733,
    "PortArea": "Austria",
    "PortRegion": "Europe Rivers",
    "Latitude": 48.38,
    "Longitude": 15.455,
    "CountryCode": "AT"
  },
  {
    "LOCODE": "N/A",
    "PortCountry": "Austria",
    "PortName": "Engelhartszell",
    "PortNo": 1734,
    "PortArea": "Austria",
    "PortRegion": "Europe Rivers",
    "Latitude": 48.507,
    "Longitude": 13.731,
    "CountryCode": "AT"
  },
  {
    "LOCODE": "ATGRN",
    "PortCountry": "Austria",
    "PortName": "Grein",
    "PortNo": 2326,
    "PortArea": "Austria",
    "PortRegion": "Europe Rivers",
    "Latitude": 48.233,
    "Longitude": 14.856,
    "CountryCode": "AT"
  },
  {
    "LOCODE": "N/A",
    "PortCountry": "Austria",
    "PortName": "Wachau Valley",
    "PortNo": 2609,
    "PortArea": "Austria",
    "PortRegion": "Europe Rivers",
    "Latitude": 48.389,
    "Longitude": 15.492,
    "CountryCode": "AT"
  },
  {
    "LOCODE": "ATSPZ",
    "PortCountry": "Austria",
    "PortName": "Spitz an der Donau",
    "PortNo": 2981,
    "PortArea": "Austria",
    "PortRegion": "Europe Rivers",
    "Latitude": 48.362,
    "Longitude": 15.417,
    "CountryCode": "AT"
  },
  {
    "LOCODE": "N/A",
    "PortCountry": "Austria",
    "PortName": "Emmersdorf an der Donau",
    "PortNo": 3409,
    "PortArea": "Austria",
    "PortRegion": "Europe Rivers",
    "Latitude": 48.247,
    "Longitude": 15.336,
    "CountryCode": "AT"
  },
  {
    "LOCODE": "N/A",
    "PortCountry": "Austria",
    "PortName": "Durnstein",
    "PortNo": 3605,
    "PortArea": "Austria",
    "PortRegion": "Europe Rivers",
    "Latitude": 48.4,
    "Longitude": 15.519,
    "CountryCode": "AT"
  },
  {
    "LOCODE": "N/A",
    "PortCountry": "Austria",
    "PortName": "Krems an der Donau",
    "PortNo": 3606,
    "PortArea": "Austria",
    "PortRegion": "Europe Rivers",
    "Latitude": 48.414,
    "Longitude": 15.602,
    "CountryCode": "AT"
  },
  {
    "LOCODE": "N/A",
    "PortCountry": "Austria",
    "PortName": "Melk",
    "PortNo": 3607,
    "PortArea": "Austria",
    "PortRegion": "Europe Rivers",
    "Latitude": 48.234,
    "Longitude": 15.325,
    "CountryCode": "AT"
  },
  {
    "LOCODE": "N/A",
    "PortCountry": "Austria",
    "PortName": "Vienna",
    "PortNo": 3609,
    "PortArea": "Wien, Austria",
    "PortRegion": "Europe Rivers",
    "Latitude": 48.221,
    "Longitude": 16.392,
    "CountryCode": "AT"
  },
  {
    "LOCODE": "N/A",
    "PortCountry": "Austria",
    "PortName": "Aschach an der Donau",
    "PortNo": 5125,
    "PortArea": "Austria",
    "PortRegion": "Europe Rivers",
    "Latitude": 48.368,
    "Longitude": 14.026,
    "CountryCode": "AT"
  },
  {
    "LOCODE": "N/A",
    "PortCountry": "Austria",
    "PortName": "Hainburg an der Donau",
    "PortNo": 9910,
    "PortArea": "Austria",
    "PortRegion": "Europe Rivers",
    "Latitude": 48.15,
    "Longitude": 16.942,
    "CountryCode": "AT"
  },
  {
    "LOCODE": "N/A",
    "PortCountry": "Austria",
    "PortName": "Ybbs an der Donau",
    "PortNo": 13016,
    "PortArea": "Austria",
    "PortRegion": "Europe Rivers",
    "Latitude": 48.175,
    "Longitude": 15.091,
    "CountryCode": "AT"
  },
  {
    "LOCODE": "N/A",
    "PortCountry": "Austria",
    "PortName": "Neuhofen an der Ybbs",
    "PortNo": 13589,
    "PortArea": "Austria",
    "PortRegion": "Europe Rivers",
    "Latitude": 48.056,
    "Longitude": 14.854,
    "CountryCode": "AT"
  },
  {
    "LOCODE": "N/A",
    "PortCountry": "Austria",
    "PortName": "Pochlarn",
    "PortNo": 16187,
    "PortArea": "Austria",
    "PortRegion": "Europe Rivers",
    "Latitude": 48.213,
    "Longitude": 15.223,
    "CountryCode": "AT"
  },
  {
    "LOCODE": "ATLNZ",
    "PortCountry": "Austria",
    "PortName": "Linz",
    "PortNo": 1202,
    "PortArea": "Austria",
    "PortRegion": "Europe Rivers",
    "Latitude": 48.313,
    "Longitude": 14.311,
    "CountryCode": "AT"
  },
  {
    "LOCODE": "N/A",
    "PortCountry": "Austria",
    "PortName": "Salzburg",
    "PortNo": 1206,
    "PortArea": "Austria, bus tour",
    "PortRegion": "Europe Rivers",
    "Latitude": 47.801,
    "Longitude": 13.046,
    "CountryCode": "AT"
  },
  {
    "LOCODE": "BSCOC",
    "PortCountry": "Bahamas",
    "PortName": "Coco Cay",
    "PortNo": 392,
    "PortArea": "Bahamas, Royal Caribbean",
    "PortRegion": "Bahamas - Caribbean - Bermuda",
    "Latitude": 25.817,
    "Longitude": -77.934,
    "CountryCode": "BS"
  },
  {
    "LOCODE": "N/A",
    "PortCountry": "Bahamas",
    "PortName": "MSC Ocean Cay",
    "PortNo": 5231,
    "PortArea": "Bahamas private island",
    "PortRegion": "Bahamas - Caribbean - Bermuda",
    "Latitude": 25.42,
    "Longitude": -79.208,
    "CountryCode": "BS"
  },
  {
    "LOCODE": "N/A",
    "PortCountry": "Bahamas",
    "PortName": "Disney Castaway Cay",
    "PortNo": 811,
    "PortArea": "Bahamas DCL private island",
    "PortRegion": "Bahamas - Caribbean - Bermuda",
    "Latitude": 26.089,
    "Longitude": -77.536,
    "CountryCode": "BS"
  },
  {
    "LOCODE": "USFPO",
    "PortCountry": "Bahamas",
    "PortName": "Freeport",
    "PortNo": 30,
    "PortArea": "Bahamas, Grand Bahama Island",
    "PortRegion": "Bahamas - Caribbean - Bermuda",
    "Latitude": 26.528,
    "Longitude": -78.732,
    "CountryCode": "BS"
  },
  {
    "LOCODE": "BSNAS",
    "PortCountry": "Bahamas",
    "PortName": "Nassau",
    "PortNo": 27,
    "PortArea": "Bahamas, New Providence Island",
    "PortRegion": "Bahamas - Caribbean - Bermuda",
    "Latitude": 25.083,
    "Longitude": -77.339,
    "CountryCode": "BS"
  },
  {
    "LOCODE": "N/A",
    "PortCountry": "Bahamas",
    "PortName": "Disney Lookout Cay",
    "PortNo": 14189,
    "PortArea": "Lighthouse Point, Eleuthera Bahamas",
    "PortRegion": "Bahamas - Caribbean - Bermuda",
    "Latitude": 24.626,
    "Longitude": -76.154,
    "CountryCode": "BS"
  },
  {
    "LOCODE": "N/A",
    "PortCountry": "Bahamas",
    "PortName": "Half Moon Cay",
    "PortNo": 393,
    "PortArea": "Bahamas Carnival private island",
    "PortRegion": "Bahamas - Caribbean - Bermuda",
    "Latitude": 24.576,
    "Longitude": -75.955,
    "CountryCode": "BS"
  },
  {
    "LOCODE": "N/A",
    "PortCountry": "Bahamas",
    "PortName": "Princess Cays",
    "PortNo": 3619,
    "PortArea": "Bahamas, Eleuthera Island",
    "PortRegion": "Bahamas - Caribbean - Bermuda",
    "Latitude": 24.616,
    "Longitude": -76.15,
    "CountryCode": "BS"
  },
  {
    "LOCODE": "N/A",
    "PortCountry": "Bahamas",
    "PortName": "Bimini Islands",
    "PortNo": 3615,
    "PortArea": "Resorts World Bimini Bahamas",
    "PortRegion": "Bahamas - Caribbean - Bermuda",
    "Latitude": 25.75,
    "Longitude": -79.284,
    "CountryCode": "BS"
  },
  {
    "LOCODE": "BSGSC",
    "PortCountry": "Bahamas",
    "PortName": "Great Stirrup Cay",
    "PortNo": 1023,
    "PortArea": "Bahamas NCL private island",
    "PortRegion": "Bahamas - Caribbean - Bermuda",
    "Latitude": 25.826,
    "Longitude": -77.914,
    "CountryCode": "BS"
  },
  {
    "LOCODE": "N/A",
    "PortCountry": "Bahamas",
    "PortName": "Celebration Key Bahamas",
    "PortNo": 2144,
    "PortArea": "Carnival Grand Bahama Island",
    "PortRegion": "Bahamas - Caribbean - Bermuda",
    "Latitude": 26.567,
    "Longitude": -78.504,
    "CountryCode": "BS"
  },
  {
    "LOCODE": "N/A",
    "PortCountry": "Bahamas",
    "PortName": "San Salvador Island Bahamas",
    "PortNo": 16833,
    "PortArea": "Cockburn Town",
    "PortRegion": "Port Descriptions",
    "Latitude": 24.052,
    "Longitude": -74.532,
    "CountryCode": "BS"
  },
  {
    "LOCODE": "N/A",
    "PortCountry": "Bahamas",
    "PortName": "Inagua Island Bahamas",
    "PortNo": 1961,
    "PortArea": "Matthew Town",
    "PortRegion": "Bahamas - Caribbean - Bermuda",
    "Latitude": 20.952,
    "Longitude": -73.677,
    "CountryCode": "BS"
  },
  {
    "LOCODE": "N/A",
    "PortCountry": "Bahamas",
    "PortName": "Rose Island Bahamas",
    "PortNo": 15014,
    "PortArea": "Sandy Toes Beach",
    "PortRegion": "Bahamas - Caribbean - Bermuda",
    "Latitude": 25.092,
    "Longitude": -77.184,
    "CountryCode": "BS"
  },
  {
    "LOCODE": "N/A",
    "PortCountry": "Bahamas",
    "PortName": "Staniel Cay Bahamas",
    "PortNo": 15016,
    "PortArea": "Exumas Islands",
    "PortRegion": "Bahamas - Caribbean - Bermuda",
    "Latitude": 24.168,
    "Longitude": -76.444,
    "CountryCode": "BS"
  },
  {
    "LOCODE": "N/A",
    "PortCountry": "Bahamas",
    "PortName": "Great Harbour Cay Bahamas",
    "PortNo": 15017,
    "PortArea": "Berry Islands",
    "PortRegion": "Bahamas - Caribbean - Bermuda",
    "Latitude": 25.754,
    "Longitude": -77.87,
    "CountryCode": "BS"
  },
  {
    "LOCODE": "N/A",
    "PortCountry": "Bahamas",
    "PortName": "Harbour Island Bahamas",
    "PortNo": 5235,
    "PortArea": "Dunmore Town",
    "PortRegion": "Bahamas - Caribbean - Bermuda",
    "Latitude": 25.496,
    "Longitude": -76.633,
    "CountryCode": "BS"
  },
  {
    "LOCODE": "N/A",
    "PortCountry": "Bahamas",
    "PortName": "Long Island Bahamas",
    "PortNo": 13256,
    "PortArea": "Clarence Town, Calypso Cove",
    "PortRegion": "Bahamas - Caribbean - Bermuda",
    "Latitude": 23.05,
    "Longitude": -74.905,
    "CountryCode": "BS"
  },
  {
    "LOCODE": "N/A",
    "PortCountry": "Bahamas",
    "PortName": "Exuma Islands",
    "PortNo": 13404,
    "PortArea": "Bahamas, George Town",
    "PortRegion": "Bahamas - Caribbean - Bermuda",
    "Latitude": 23.553,
    "Longitude": -75.237,
    "CountryCode": "BS"
  },
  {
    "LOCODE": "N/A",
    "PortCountry": "Bahamas",
    "PortName": "Atlantis Paradise Island Bahamas",
    "PortNo": 13493,
    "PortArea": "RCI Royal Beach Club",
    "PortRegion": "Bahamas - Caribbean - Bermuda",
    "Latitude": 25.082,
    "Longitude": -77.321,
    "CountryCode": "BS"
  },
  {
    "LOCODE": "N/A",
    "PortCountry": "Bahamas",
    "PortName": "Spanish Wells Bahamas",
    "PortNo": 17222,
    "PortArea": "Russell Island & St George's Cay|Harbour Island",
    "PortRegion": "Bahamas - Caribbean - Bermuda",
    "Latitude": 25.542,
    "Longitude": -76.751,
    "CountryCode": "BS"
  },
  {
    "LOCODE": "N/A",
    "PortCountry": "Bahamas",
    "PortName": "Cat Island Bahamas",
    "PortNo": 17304,
    "PortArea": "New Bight",
    "PortRegion": "Bahamas - Caribbean - Bermuda",
    "Latitude": 24.348,
    "Longitude": -75.506,
    "CountryCode": "BS"
  },
  {
    "LOCODE": "BHKBS",
    "PortCountry": "Bahrain",
    "PortName": "Mina Salman-Manama",
    "PortNo": 1404,
    "PortArea": "Bahrain, Khalifa Bin Salman Port",
    "PortRegion": "Asia",
    "Latitude": 26.198,
    "Longitude": 50.703,
    "CountryCode": "BH"
  },
  {
    "LOCODE": "N/A",
    "PortCountry": "Bangladesh",
    "PortName": "Chittagong Ship Breaking Yard",
    "PortNo": 10304,
    "PortArea": "Bangladesh",
    "PortRegion": "Asia",
    "Latitude": 22.386,
    "Longitude": 91.746,
    "CountryCode": "BD"
  },
  {
    "LOCODE": "BBBGI",
    "PortCountry": "Barbados",
    "PortName": "Bridgetown",
    "PortNo": 28,
    "PortArea": "Barbados",
    "PortRegion": "Bahamas - Caribbean - Bermuda",
    "Latitude": 13.104,
    "Longitude": -59.626,
    "CountryCode": "BB"
  },
  {
    "LOCODE": "BBSPT",
    "PortCountry": "Barbados",
    "PortName": "Speightstown",
    "PortNo": 19566,
    "PortArea": "Barbados",
    "PortRegion": "Bahamas - Caribbean - Bermuda",
    "Latitude": 13.251,
    "Longitude": -59.644,
    "CountryCode": "BB"
  },
  {
    "LOCODE": "BEZEE",
    "PortCountry": "Belgium",
    "PortName": "Zeebrugge",
    "PortNo": 50,
    "PortArea": "Bruges, Belgium",
    "PortRegion": "Baltic - Norwegian Fjords - Russia",
    "Latitude": 51.344,
    "Longitude": 3.199,
    "CountryCode": "BE"
  },
  {
    "LOCODE": "BEOST",
    "PortCountry": "Belgium",
    "PortName": "Ostend",
    "PortNo": 1941,
    "PortArea": "Belgium",
    "PortRegion": "Western Europe - Azores - Canary Islands",
    "Latitude": 51.24,
    "Longitude": 2.918,
    "CountryCode": "BE"
  },
  {
    "LOCODE": "N/A",
    "PortCountry": "Belgium",
    "PortName": "Brussels",
    "PortNo": 2159,
    "PortArea": "Belgium",
    "PortRegion": "Europe Rivers",
    "Latitude": 50.855,
    "Longitude": 4.356,
    "CountryCode": "BE"
  },
  {
    "LOCODE": "N/A",
    "PortCountry": "Belgium",
    "PortName": "Namur",
    "PortNo": 9509,
    "PortArea": "Belgium",
    "PortRegion": "Europe Rivers",
    "Latitude": 50.462,
    "Longitude": 4.871,
    "CountryCode": "BE"
  },
  {
    "LOCODE": "N/A",
    "PortCountry": "Belgium",
    "PortName": "Liege",
    "PortNo": 9684,
    "PortArea": "Belgium, Luttich",
    "PortRegion": "Europe Rivers",
    "Latitude": 50.642,
    "Longitude": 5.578,
    "CountryCode": "BE"
  },
  {
    "LOCODE": "N/A",
    "PortCountry": "Belgium",
    "PortName": "Kortrijk",
    "PortNo": 11779,
    "PortArea": "Belgium",
    "PortRegion": "Europe Rivers",
    "Latitude": 50.829,
    "Longitude": 3.258,
    "CountryCode": "BE"
  },
  {
    "LOCODE": "N/A",
    "PortCountry": "Belgium",
    "PortName": "Hasselt",
    "PortNo": 14969,
    "PortArea": "Belgium",
    "PortRegion": "Europe Rivers",
    "Latitude": 50.936,
    "Longitude": 5.337,
    "CountryCode": "BE"
  },
  {
    "LOCODE": "N/A",
    "PortCountry": "Belgium",
    "PortName": "Oudenaarde",
    "PortNo": 19838,
    "PortArea": "Belgium",
    "PortRegion": "France Rivers",
    "Latitude": 50.842,
    "Longitude": 3.608,
    "CountryCode": "BE"
  },
  {
    "LOCODE": "N/A",
    "PortCountry": "Belgium",
    "PortName": "Antoing",
    "PortNo": 19839,
    "PortArea": "Belgium",
    "PortRegion": "France Rivers",
    "Latitude": 50.546,
    "Longitude": 3.451,
    "CountryCode": "BE"
  },
  {
    "LOCODE": "N/A",
    "PortCountry": "Belgium",
    "PortName": "Mons",
    "PortNo": 19840,
    "PortArea": "Belgium",
    "PortRegion": "France Rivers",
    "Latitude": 50.458,
    "Longitude": 3.942,
    "CountryCode": "BE"
  },
  {
    "LOCODE": "N/A",
    "PortCountry": "Belgium",
    "PortName": "La Louviere",
    "PortNo": 19841,
    "PortArea": "Belgium, Strepy-Bracquegnies Boat Lift",
    "PortRegion": "France Rivers",
    "Latitude": 50.476,
    "Longitude": 4.123,
    "CountryCode": "BE"
  },
  {
    "LOCODE": "N/A",
    "PortCountry": "Belgium",
    "PortName": "Halle",
    "PortNo": 19842,
    "PortArea": "Belgium",
    "PortRegion": "Europe Rivers",
    "Latitude": 50.736,
    "Longitude": 4.239,
    "CountryCode": "BE"
  },
  {
    "LOCODE": "BEANR",
    "PortCountry": "Belgium",
    "PortName": "Antwerp",
    "PortNo": 948,
    "PortArea": "Belgium",
    "PortRegion": "Baltic - Norwegian Fjords - Russia",
    "Latitude": 51.256,
    "Longitude": 4.388,
    "CountryCode": "BE"
  },
  {
    "LOCODE": "BEGNE",
    "PortCountry": "Belgium",
    "PortName": "Ghent",
    "PortNo": 956,
    "PortArea": "Belgium",
    "PortRegion": "Europe Rivers",
    "Latitude": 51.076,
    "Longitude": 3.731,
    "CountryCode": "BE"
  },
  {
    "LOCODE": "BZBZE",
    "PortCountry": "Belize",
    "PortName": "Harvest Caye Belize",
    "PortNo": 34,
    "PortArea": "NCL private island",
    "PortRegion": "Bahamas - Caribbean - Bermuda",
    "Latitude": 17.492,
    "Longitude": -88.184,
    "CountryCode": "BZ"
  },
  {
    "LOCODE": "N/A",
    "PortCountry": "Belize",
    "PortName": "Dangriga",
    "PortNo": 11734,
    "PortArea": "Belize",
    "PortRegion": "Bahamas - Caribbean - Bermuda",
    "Latitude": 17.206,
    "Longitude": -87.536,
    "CountryCode": "BZ"
  },
  {
    "LOCODE": "N/A",
    "PortCountry": "Belize",
    "PortName": "Placencia",
    "PortNo": 14858,
    "PortArea": "Belize",
    "PortRegion": "Bahamas - Caribbean - Bermuda",
    "Latitude": 16.519,
    "Longitude": -88.373,
    "CountryCode": "BZ"
  },
  {
    "LOCODE": "BJCOO",
    "PortCountry": "Benin",
    "PortName": "Cotonou",
    "PortNo": 318,
    "PortArea": "Benin, Porto-Novo",
    "PortRegion": "Africa - Indian Ocean Islands",
    "Latitude": 6.393,
    "Longitude": 2.326,
    "CountryCode": "BJ"
  },
  {
    "LOCODE": "BMKWF",
    "PortCountry": "Bermuda",
    "PortName": "Kings Wharf",
    "PortNo": 110,
    "PortArea": "Bermuda",
    "PortRegion": "Bahamas - Caribbean - Bermuda",
    "Latitude": 32.326,
    "Longitude": -64.834,
    "CountryCode": "BM"
  },
  {
    "LOCODE": "CAHAM",
    "PortCountry": "Bermuda",
    "PortName": "Hamilton",
    "PortNo": 469,
    "PortArea": "Bermuda",
    "PortRegion": "Bahamas - Caribbean - Bermuda",
    "Latitude": 32.291,
    "Longitude": -64.786,
    "CountryCode": "BM"
  },
  {
    "LOCODE": "BMSGE",
    "PortCountry": "Bermuda",
    "PortName": "St George",
    "PortNo": 792,
    "PortArea": "Bermuda",
    "PortRegion": "Bahamas - Caribbean - Bermuda",
    "Latitude": 32.381,
    "Longitude": -64.675,
    "CountryCode": "BM"
  },
  {
    "LOCODE": "N/A",
    "PortCountry": "Bosnia_and_Herzegovina",
    "PortName": "Neum",
    "PortNo": 13240,
    "PortArea": "Bosnia-Herzegovina",
    "PortRegion": "Mediterranean - Black Sea",
    "Latitude": 42.923,
    "Longitude": 17.612,
    "CountryCode": "BA"
  },
  {
    "LOCODE": "N/A",
    "PortCountry": "Botswana",
    "PortName": "Kasane",
    "PortNo": 2191,
    "PortArea": "Botswana",
    "PortRegion": "Africa - Indian Ocean Islands",
    "Latitude": -17.793,
    "Longitude": 25.16,
    "CountryCode": "BW"
  },
  {
    "LOCODE": "N/A",
    "PortCountry": "Botswana",
    "PortName": "Chobe National Park",
    "PortNo": 9493,
    "PortArea": "Botswana",
    "PortRegion": "Africa - Indian Ocean Islands",
    "Latitude": -18.516,
    "Longitude": 24.478,
    "CountryCode": "BW"
  },
  {
    "LOCODE": "BRMAO",
    "PortCountry": "Brazil",
    "PortName": "Manaus",
    "PortNo": 803,
    "PortArea": "Brazil Amazon",
    "PortRegion": "Amazon River",
    "Latitude": -3.132,
    "Longitude": -60.024,
    "CountryCode": "BR"
  },
  {
    "LOCODE": "BRSSA",
    "PortCountry": "Brazil",
    "PortName": "Salvador de Bahia",
    "PortNo": 445,
    "PortArea": "Brazil",
    "PortRegion": "South America",
    "Latitude": -12.97,
    "Longitude": -38.516,
    "CountryCode": "BR"
  },
  {
    "LOCODE": "BRRIO",
    "PortCountry": "Brazil",
    "PortName": "Rio de Janeiro",
    "PortNo": 105,
    "PortArea": "Brazil",
    "PortRegion": "South America",
    "Latitude": -22.893,
    "Longitude": -43.178,
    "CountryCode": "BR"
  },
  {
    "LOCODE": "N/A",
    "PortCountry": "Brazil",
    "PortName": "Parintins",
    "PortNo": 804,
    "PortArea": "Brazil Amazon",
    "PortRegion": "Amazon River",
    "Latitude": -2.619,
    "Longitude": -56.734,
    "CountryCode": "BR"
  },
  {
    "LOCODE": "BRSTM",
    "PortCountry": "Brazil",
    "PortName": "Santarem",
    "PortNo": 801,
    "PortArea": "Brazil Amazon",
    "PortRegion": "Amazon River",
    "Latitude": -2.403,
    "Longitude": -54.733,
    "CountryCode": "BR"
  },
  {
    "LOCODE": "BRSLZ",
    "PortCountry": "Brazil",
    "PortName": "Sao Luis",
    "PortNo": 1966,
    "PortArea": "Brazil",
    "PortRegion": "South America",
    "Latitude": -2.531,
    "Longitude": -44.361,
    "CountryCode": "BR"
  },
  {
    "LOCODE": "BRPNG",
    "PortCountry": "Brazil",
    "PortName": "Paranagua",
    "PortNo": 2707,
    "PortArea": "Brazil",
    "PortRegion": "South America",
    "Latitude": -25.501,
    "Longitude": -48.538,
    "CountryCode": "BR"
  },
  {
    "LOCODE": "N/A",
    "PortCountry": "Brazil",
    "PortName": "Almeirim",
    "PortNo": 9076,
    "PortArea": "Brazil Amazon",
    "PortRegion": "Amazon River",
    "Latitude": -1.524,
    "Longitude": -52.579,
    "CountryCode": "BR"
  },
  {
    "LOCODE": "N/A",
    "PortCountry": "Brazil",
    "PortName": "Boca da Valeria",
    "PortNo": 11595,
    "PortArea": "Brazil Amazon",
    "PortRegion": "Amazon River",
    "Latitude": -2.403,
    "Longitude": -56.448,
    "CountryCode": "BR"
  },
  {
    "LOCODE": "BRSFS",
    "PortCountry": "Brazil",
    "PortName": "Sao Francisco do Sul",
    "PortNo": 11622,
    "PortArea": "Brazil",
    "PortRegion": "South America",
    "Latitude": -26.25,
    "Longitude": -48.622,
    "CountryCode": "BR"
  },
  {
    "LOCODE": "N/A",
    "PortCountry": "Brazil",
    "PortName": "Balneario Camboriu",
    "PortNo": 12268,
    "PortArea": "Brazil",
    "PortRegion": "South America",
    "Latitude": -26.99,
    "Longitude": -48.616,
    "CountryCode": "BR"
  },
  {
    "LOCODE": "BRBZC",
    "PortCountry": "Brazil",
    "PortName": "Buzios",
    "PortNo": 104,
    "PortArea": "Brazil",
    "PortRegion": "South America",
    "Latitude": -22.748,
    "Longitude": -41.89,
    "CountryCode": "BR"
  },
  {
    "LOCODE": "BRSSZ",
    "PortCountry": "Brazil",
    "PortName": "Santos",
    "PortNo": 106,
    "PortArea": "Sao Paulo, Brazil",
    "PortRegion": "South America",
    "Latitude": -23.968,
    "Longitude": -46.302,
    "CountryCode": "BR"
  },
  {
    "LOCODE": "BRIGE",
    "PortCountry": "Brazil",
    "PortName": "Ilha Grande",
    "PortNo": 686,
    "PortArea": "Abraao, Brazil",
    "PortRegion": "South America",
    "Latitude": -23.133,
    "Longitude": -44.164,
    "CountryCode": "BR"
  },
  {
    "LOCODE": "BRNAT",
    "PortCountry": "Brazil",
    "PortName": "Natal",
    "PortNo": 446,
    "PortArea": "Brazil",
    "PortRegion": "South America",
    "Latitude": -5.785,
    "Longitude": -35.187,
    "CountryCode": "BR"
  },
  {
    "LOCODE": "BRFOR",
    "PortCountry": "Brazil",
    "PortName": "Fortaleza",
    "PortNo": 447,
    "PortArea": "Brazil",
    "PortRegion": "South America",
    "Latitude": -3.711,
    "Longitude": -38.514,
    "CountryCode": "BR"
  },
  {
    "LOCODE": "BRREC",
    "PortCountry": "Brazil",
    "PortName": "Recife",
    "PortNo": 685,
    "PortArea": "Brazil",
    "PortRegion": "South America",
    "Latitude": -8.057,
    "Longitude": -34.876,
    "CountryCode": "BR"
  },
  {
    "LOCODE": "BRPBO",
    "PortCountry": "Brazil",
    "PortName": "Porto Belo",
    "PortNo": 687,
    "PortArea": "Brazil",
    "PortRegion": "South America",
    "Latitude": -27.148,
    "Longitude": -48.546,
    "CountryCode": "BR"
  },
  {
    "LOCODE": "BRPOA",
    "PortCountry": "Brazil",
    "PortName": "Rio Grande",
    "PortNo": 688,
    "PortArea": "Porto Alegre, Brazil",
    "PortRegion": "South America",
    "Latitude": -30.021,
    "Longitude": -51.229,
    "CountryCode": "BR"
  },
  {
    "LOCODE": "BRMCP",
    "PortCountry": "Brazil",
    "PortName": "Macapa",
    "PortNo": 806,
    "PortArea": "Brazil",
    "PortRegion": "South America",
    "Latitude": 0.033,
    "Longitude": -51.05,
    "CountryCode": "BR"
  },
  {
    "LOCODE": "BRMCZ",
    "PortCountry": "Brazil",
    "PortName": "Maceio",
    "PortNo": 925,
    "PortArea": "Brazil",
    "PortRegion": "South America",
    "Latitude": -9.674,
    "Longitude": -35.728,
    "CountryCode": "BR"
  },
  {
    "LOCODE": "BRADR",
    "PortCountry": "Brazil",
    "PortName": "Angra dos Reis",
    "PortNo": 926,
    "PortArea": "Brazil",
    "PortRegion": "South America",
    "Latitude": -23.004,
    "Longitude": -44.317,
    "CountryCode": "BR"
  },
  {
    "LOCODE": "N/A",
    "PortCountry": "Brazil",
    "PortName": "Ilhabela",
    "PortNo": 927,
    "PortArea": "Brazil",
    "PortRegion": "South America",
    "Latitude": -23.777,
    "Longitude": -45.356,
    "CountryCode": "BR"
  },
  {
    "LOCODE": "BRVIX",
    "PortCountry": "Brazil",
    "PortName": "Vitoria",
    "PortNo": 967,
    "PortArea": "Brazil",
    "PortRegion": "South America",
    "Latitude": -20.298,
    "Longitude": -40.289,
    "CountryCode": "BR"
  },
  {
    "LOCODE": "BRPAT",
    "PortCountry": "Brazil",
    "PortName": "Paraty",
    "PortNo": 980,
    "PortArea": "Brazil",
    "PortRegion": "South America",
    "Latitude": -23.215,
    "Longitude": -44.71,
    "CountryCode": "BR"
  },
  {
    "LOCODE": "BRIOS",
    "PortCountry": "Brazil",
    "PortName": "Ilheus",
    "PortNo": 1079,
    "PortArea": "Brazil",
    "PortRegion": "South America",
    "Latitude": -14.779,
    "Longitude": -39.031,
    "CountryCode": "BR"
  },
  {
    "LOCODE": "BRBEL",
    "PortCountry": "Brazil",
    "PortName": "Belem",
    "PortNo": 1181,
    "PortArea": "Brazil",
    "PortRegion": "South America",
    "Latitude": -1.441,
    "Longitude": -48.496,
    "CountryCode": "BR"
  },
  {
    "LOCODE": "N/A",
    "PortCountry": "Brazil",
    "PortName": "Cabo Frio",
    "PortNo": 1232,
    "PortArea": "Brazil",
    "PortRegion": "South America",
    "Latitude": -22.879,
    "Longitude": -42.009,
    "CountryCode": "BR"
  },
  {
    "LOCODE": "BRUBT",
    "PortCountry": "Brazil",
    "PortName": "Ubatuba",
    "PortNo": 1250,
    "PortArea": "Brazil",
    "PortRegion": "South America",
    "Latitude": -23.433,
    "Longitude": -45.067,
    "CountryCode": "BR"
  },
  {
    "LOCODE": "BRITJ",
    "PortCountry": "Brazil",
    "PortName": "Itajai",
    "PortNo": 1453,
    "PortArea": "Brazil",
    "PortRegion": "South America",
    "Latitude": -26.909,
    "Longitude": -48.648,
    "CountryCode": "BR"
  },
  {
    "LOCODE": "VGRAD",
    "PortCountry": "British_Virgin_Islands",
    "PortName": "Tortola Island BVI",
    "PortNo": 35,
    "PortArea": "Road Town, UK Virgin Islands",
    "PortRegion": "Bahamas - Caribbean - Bermuda",
    "Latitude": 18.423,
    "Longitude": -64.613,
    "CountryCode": "VG"
  },
  {
    "LOCODE": "N/A",
    "PortCountry": "British_Virgin_Islands",
    "PortName": "Anegada Island BVI",
    "PortNo": 1967,
    "PortArea": "UK Virgin Islands",
    "PortRegion": "Bahamas - Caribbean - Bermuda",
    "Latitude": 18.719,
    "Longitude": -64.33,
    "CountryCode": "VG"
  },
  {
    "LOCODE": "VGNIS",
    "PortCountry": "British_Virgin_Islands",
    "PortName": "Norman Island BVI",
    "PortNo": 1968,
    "PortArea": "UK Virgin Islands",
    "PortRegion": "Bahamas - Caribbean - Bermuda",
    "Latitude": 18.318,
    "Longitude": -64.613,
    "CountryCode": "VG"
  },
  {
    "LOCODE": "N/A",
    "PortCountry": "British_Virgin_Islands",
    "PortName": "Peter Island BVI",
    "PortNo": 1969,
    "PortArea": "UK Virgin Islands",
    "PortRegion": "Bahamas - Caribbean - Bermuda",
    "Latitude": 18.358,
    "Longitude": -64.572,
    "CountryCode": "VG"
  },
  {
    "LOCODE": "N/A",
    "PortCountry": "British_Virgin_Islands",
    "PortName": "Salt Island BVI",
    "PortNo": 11534,
    "PortArea": "UK Virgin Islands",
    "PortRegion": "Bahamas - Caribbean - Bermuda",
    "Latitude": 18.372,
    "Longitude": -64.527,
    "CountryCode": "VG"
  },
  {
    "LOCODE": "N/A",
    "PortCountry": "British_Virgin_Islands",
    "PortName": "Scrub Island BVI",
    "PortNo": 11646,
    "PortArea": "UK Virgin Islands",
    "PortRegion": "Bahamas - Caribbean - Bermuda",
    "Latitude": 18.468,
    "Longitude": -64.519,
    "CountryCode": "VG"
  },
  {
    "LOCODE": "VGVIJ",
    "PortCountry": "British_Virgin_Islands",
    "PortName": "Virgin Gorda Island BVI",
    "PortNo": 983,
    "PortArea": "Spanish Town, UK Virgin Islands",
    "PortRegion": "Bahamas - Caribbean - Bermuda",
    "Latitude": 18.454,
    "Longitude": -64.44,
    "CountryCode": "VG"
  },
  {
    "LOCODE": "VGJVD",
    "PortCountry": "British_Virgin_Islands",
    "PortName": "Jost Van Dyke Island BVI",
    "PortNo": 1120,
    "PortArea": "Belle Vue, UK Virgin Islands",
    "PortRegion": "Bahamas - Caribbean - Bermuda",
    "Latitude": 18.449,
    "Longitude": -64.75,
    "CountryCode": "VG"
  },
  {
    "LOCODE": "BNBWN",
    "PortCountry": "Brunei",
    "PortName": "Bandar Seri Begawan",
    "PortNo": 128,
    "PortArea": "Muara, Brunei",
    "PortRegion": "Asia",
    "Latitude": 4.889,
    "Longitude": 114.947,
    "CountryCode": "BN"
  },
  {
    "LOCODE": "N/A",
    "PortCountry": "Bulgaria",
    "PortName": "Nessebar",
    "PortNo": 733,
    "PortArea": "Bulgaria",
    "PortRegion": "Mediterranean - Black Sea",
    "Latitude": 42.664,
    "Longitude": 27.733,
    "CountryCode": "BG"
  },
  {
    "LOCODE": "BGRDU",
    "PortCountry": "Bulgaria",
    "PortName": "Ruse",
    "PortNo": 2110,
    "PortArea": "Rousse-Russe, Bulgaria",
    "PortRegion": "Europe Rivers",
    "Latitude": 43.859,
    "Longitude": 25.956,
    "CountryCode": "BG"
  },
  {
    "LOCODE": "BGSVZ",
    "PortCountry": "Bulgaria",
    "PortName": "Svishtov",
    "PortNo": 2349,
    "PortArea": "Bulgaria",
    "PortRegion": "Europe Rivers",
    "Latitude": 43.628,
    "Longitude": 25.348,
    "CountryCode": "BG"
  },
  {
    "LOCODE": "BGNPO",
    "PortCountry": "Bulgaria",
    "PortName": "Nikopol",
    "PortNo": 2638,
    "PortArea": "Bulgaria",
    "PortRegion": "Europe Rivers",
    "Latitude": 43.707,
    "Longitude": 24.889,
    "CountryCode": "BG"
  },
  {
    "LOCODE": "N/A",
    "PortCountry": "Bulgaria",
    "PortName": "Lom",
    "PortNo": 13433,
    "PortArea": "Bulgaria",
    "PortRegion": "Europe Rivers",
    "Latitude": 43.835,
    "Longitude": 23.229,
    "CountryCode": "BG"
  },
  {
    "LOCODE": "N/A",
    "PortCountry": "Bulgaria",
    "PortName": "Tutrakan",
    "PortNo": 13456,
    "PortArea": "Bulgaria",
    "PortRegion": "Europe Rivers",
    "Latitude": 44.053,
    "Longitude": 26.612,
    "CountryCode": "BG"
  },
  {
    "LOCODE": "N/A",
    "PortCountry": "Bulgaria",
    "PortName": "Oriahovo",
    "PortNo": 13457,
    "PortArea": "Bulgaria",
    "PortRegion": "Europe Rivers",
    "Latitude": 43.739,
    "Longitude": 23.977,
    "CountryCode": "BG"
  },
  {
    "LOCODE": "BGVID",
    "PortCountry": "Bulgaria",
    "PortName": "Vidin",
    "PortNo": 133,
    "PortArea": "Bulgaria",
    "PortRegion": "Europe Rivers",
    "Latitude": 43.984,
    "Longitude": 22.88,
    "CountryCode": "BG"
  },
  {
    "LOCODE": "BGSLS",
    "PortCountry": "Bulgaria",
    "PortName": "Silistra",
    "PortNo": 269,
    "PortArea": "Bulgaria",
    "PortRegion": "Europe Rivers",
    "Latitude": 44.125,
    "Longitude": 27.26,
    "CountryCode": "BG"
  },
  {
    "LOCODE": "BGVAR",
    "PortCountry": "Bulgaria",
    "PortName": "Varna",
    "PortNo": 270,
    "PortArea": "Bulgaria",
    "PortRegion": "Mediterranean - Black Sea",
    "Latitude": 43.199,
    "Longitude": 27.919,
    "CountryCode": "BG"
  },
  {
    "LOCODE": "BGBOJ",
    "PortCountry": "Bulgaria",
    "PortName": "Burgas",
    "PortNo": 353,
    "PortArea": "Bulgaria",
    "PortRegion": "Mediterranean - Black Sea",
    "Latitude": 42.485,
    "Longitude": 27.465,
    "CountryCode": "BG"
  },
  {
    "LOCODE": "N/A",
    "PortCountry": "Cambodia",
    "PortName": "Kampong Cham",
    "PortNo": 2157,
    "PortArea": "Cambodia",
    "PortRegion": "Asia Rivers",
    "Latitude": 11.992,
    "Longitude": 105.465,
    "CountryCode": "KH"
  },
  {
    "LOCODE": "N/A",
    "PortCountry": "Cambodia",
    "PortName": "Phnom Penh",
    "PortNo": 3645,
    "PortArea": "Cambodia",
    "PortRegion": "Asia Rivers",
    "Latitude": 11.567,
    "Longitude": 104.939,
    "CountryCode": "KH"
  },
  {
    "LOCODE": "N/A",
    "PortCountry": "Cambodia",
    "PortName": "Koh Chen",
    "PortNo": 3647,
    "PortArea": "Cambodia",
    "PortRegion": "Asia Rivers",
    "Latitude": 11.807,
    "Longitude": 104.991,
    "CountryCode": "KH"
  },
  {
    "LOCODE": "N/A",
    "PortCountry": "Cambodia",
    "PortName": "Kampong Tralach",
    "PortNo": 3648,
    "PortArea": "Cambodia",
    "PortRegion": "Asia Rivers",
    "Latitude": 11.939,
    "Longitude": 104.714,
    "CountryCode": "KH"
  },
  {
    "LOCODE": "N/A",
    "PortCountry": "Cambodia",
    "PortName": "Kampong Chhnang",
    "PortNo": 3649,
    "PortArea": "Cambodia",
    "PortRegion": "Asia Rivers",
    "Latitude": 12.271,
    "Longitude": 104.68,
    "CountryCode": "KH"
  },
  {
    "LOCODE": "N/A",
    "PortCountry": "Cambodia",
    "PortName": "Siem Reap",
    "PortNo": 3651,
    "PortArea": "Cambodia, Angkor Wat-Thom",
    "PortRegion": "Asia Rivers",
    "Latitude": 13.359,
    "Longitude": 103.854,
    "CountryCode": "KH"
  },
  {
    "LOCODE": "N/A",
    "PortCountry": "Cambodia",
    "PortName": "Tonle Sap Lake",
    "PortNo": 3652,
    "PortArea": "Cambodia",
    "PortRegion": "Asia Rivers",
    "Latitude": 12.969,
    "Longitude": 104.005,
    "CountryCode": "KH"
  },
  {
    "LOCODE": "N/A",
    "PortCountry": "Cambodia",
    "PortName": "Oudong",
    "PortNo": 4892,
    "PortArea": "Cambodia",
    "PortRegion": "Asia Rivers",
    "Latitude": 11.821,
    "Longitude": 104.736,
    "CountryCode": "KH"
  },
  {
    "LOCODE": "N/A",
    "PortCountry": "Cambodia",
    "PortName": "Angkor Ban",
    "PortNo": 5701,
    "PortArea": "Cambodia",
    "PortRegion": "Asia Rivers",
    "Latitude": 11.973,
    "Longitude": 105.211,
    "CountryCode": "KH"
  },
  {
    "LOCODE": "N/A",
    "PortCountry": "Cambodia",
    "PortName": "Prek Bang Kong",
    "PortNo": 9503,
    "PortArea": "Cambodia",
    "PortRegion": "Asia Rivers",
    "Latitude": 13.617,
    "Longitude": 103.6,
    "CountryCode": "KH"
  },
  {
    "LOCODE": "N/A",
    "PortCountry": "Cambodia",
    "PortName": "Kratie",
    "PortNo": 9504,
    "PortArea": "Cambodia",
    "PortRegion": "Asia Rivers",
    "Latitude": 12.485,
    "Longitude": 106.015,
    "CountryCode": "KH"
  },
  {
    "LOCODE": "N/A",
    "PortCountry": "Cambodia",
    "PortName": "Koh Oknha Tey Island Cambodia",
    "PortNo": 13586,
    "PortArea": "Silk Island, Chong Koh Village",
    "PortRegion": "Asia Rivers",
    "Latitude": 11.633,
    "Longitude": 104.94,
    "CountryCode": "KH"
  },
  {
    "LOCODE": "KHKMT",
    "PortCountry": "Cambodia",
    "PortName": "Kampot",
    "PortNo": 14154,
    "PortArea": "Cambodia",
    "PortRegion": "Asia",
    "Latitude": 10.54,
    "Longitude": 104.106,
    "CountryCode": "KH"
  },
  {
    "LOCODE": "KHKOS",
    "PortCountry": "Cambodia",
    "PortName": "Sihanoukville",
    "PortNo": 577,
    "PortArea": "Cambodia",
    "PortRegion": "Asia",
    "Latitude": 10.656,
    "Longitude": 103.515,
    "CountryCode": "KH"
  },
  {
    "LOCODE": "CAVAN",
    "PortCountry": "Canada",
    "PortName": "Vancouver",
    "PortNo": 4,
    "PortArea": "BC Canada",
    "PortRegion": "Alaska",
    "Latitude": 49.289,
    "Longitude": -123.109,
    "CountryCode": "CA"
  },
  {
    "LOCODE": "CASYD",
    "PortCountry": "Canada",
    "PortName": "Sydney NS",
    "PortNo": 3667,
    "PortArea": "Nova Scotia Canada",
    "PortRegion": "East Coast USA and Canada New England",
    "Latitude": 46.142,
    "Longitude": -60.193,
    "CountryCode": "CA"
  },
  {
    "LOCODE": "N/A",
    "PortCountry": "Canada",
    "PortName": "Thunder Bay ON",
    "PortNo": 13499,
    "PortArea": "Ontario Canada, Lake Superior",
    "PortRegion": "Canada and USA Rivers",
    "Latitude": 48.414,
    "Longitude": -89.218,
    "CountryCode": "CA"
  },
  {
    "LOCODE": "CANNO",
    "PortCountry": "Canada",
    "PortName": "Nanaimo BC",
    "PortNo": 876,
    "PortArea": "Vancouver Island Canada",
    "PortRegion": "West Coast USA and Canada",
    "Latitude": 49.169,
    "Longitude": -123.932,
    "CountryCode": "CA"
  },
  {
    "LOCODE": "CAVIC",
    "PortCountry": "Canada",
    "PortName": "Victoria BC",
    "PortNo": 3,
    "PortArea": "Vancouver Island Canada",
    "PortRegion": "West Coast USA and Canada",
    "Latitude": 48.422,
    "Longitude": -123.371,
    "CountryCode": "CA"
  },
  {
    "LOCODE": "CATAD",
    "PortCountry": "Canada",
    "PortName": "Tadoussac",
    "PortNo": 1696,
    "PortArea": "Quebec Canada",
    "PortRegion": "East Coast USA and Canada New England",
    "Latitude": 48.138,
    "Longitude": -69.727,
    "CountryCode": "CA"
  },
  {
    "LOCODE": "CALOU",
    "PortCountry": "Canada",
    "PortName": "Louisbourg NS",
    "PortNo": 1697,
    "PortArea": "Cape Breton Island Canada",
    "PortRegion": "East Coast USA and Canada New England",
    "Latitude": 45.918,
    "Longitude": -59.971,
    "CountryCode": "CA"
  },
  {
    "LOCODE": "N/A",
    "PortCountry": "Canada",
    "PortName": "Ellesmere Island",
    "PortNo": 2578,
    "PortArea": "Nunavut Canada",
    "PortRegion": "Arctic - Antarctica",
    "Latitude": 77.103,
    "Longitude": -79.112,
    "CountryCode": "CA"
  },
  {
    "LOCODE": "CAAAL",
    "PortCountry": "Canada",
    "PortName": "Alert Bay BC",
    "PortNo": 2674,
    "PortArea": "Cormorant Island Canada",
    "PortRegion": "West Coast USA and Canada",
    "Latitude": 50.589,
    "Longitude": -126.934,
    "CountryCode": "CA"
  },
  {
    "LOCODE": "N/A",
    "PortCountry": "Canada",
    "PortName": "Haida Gwaii Islands",
    "PortNo": 2783,
    "PortArea": "Queen Charlotte Islands Canada",
    "PortRegion": "West Coast USA and Canada",
    "Latitude": 53.228,
    "Longitude": -132.082,
    "CountryCode": "CA"
  },
  {
    "LOCODE": "N/A",
    "PortCountry": "Canada",
    "PortName": "Somerset Island",
    "PortNo": 2831,
    "PortArea": "Fort Ross, Nunavut Canada",
    "PortRegion": "Arctic - Antarctica",
    "Latitude": 72.011,
    "Longitude": -94.249,
    "CountryCode": "CA"
  },
  {
    "LOCODE": "CAYKT",
    "PortCountry": "Canada",
    "PortName": "Klemtu BC",
    "PortNo": 2871,
    "PortArea": "Swindle Island Canada",
    "PortRegion": "West Coast USA and Canada",
    "Latitude": 52.592,
    "Longitude": -128.522,
    "CountryCode": "CA"
  },
  {
    "LOCODE": "N/A",
    "PortCountry": "Canada",
    "PortName": "Lady Franklin Island",
    "PortNo": 3192,
    "PortArea": "Nunavut Canada",
    "PortRegion": "Arctic - Antarctica",
    "Latitude": 62.92,
    "Longitude": -63.694,
    "CountryCode": "CA"
  },
  {
    "LOCODE": "N/A",
    "PortCountry": "Canada",
    "PortName": "Resolution Island",
    "PortNo": 3276,
    "PortArea": "Nunavut Canada",
    "PortRegion": "Arctic - Antarctica",
    "Latitude": 61.577,
    "Longitude": -64.986,
    "CountryCode": "CA"
  },
  {
    "LOCODE": "N/A",
    "PortCountry": "Canada",
    "PortName": "Yarmouth NS",
    "PortNo": 3668,
    "PortArea": "Nova Scotia Canada",
    "PortRegion": "East Coast USA and Canada New England",
    "Latitude": 43.834,
    "Longitude": -66.126,
    "CountryCode": "CA"
  },
  {
    "LOCODE": "N/A",
    "PortCountry": "Canada",
    "PortName": "Axel Heiberg Island",
    "PortNo": 3670,
    "PortArea": "Nunavut Canada",
    "PortRegion": "Arctic - Antarctica",
    "Latitude": 79.829,
    "Longitude": -91.268,
    "CountryCode": "CA"
  },
  {
    "LOCODE": "CAYHK",
    "PortCountry": "Canada",
    "PortName": "King William Island",
    "PortNo": 3676,
    "PortArea": "Gjoa Haven, Nunavut Canada",
    "PortRegion": "Arctic - Antarctica",
    "Latitude": 68.636,
    "Longitude": -95.85,
    "CountryCode": "CA"
  },
  {
    "LOCODE": "N/A",
    "PortCountry": "Canada",
    "PortName": "Manitoulin Island",
    "PortNo": 3685,
    "PortArea": "Little Current, Ontario Canada",
    "PortRegion": "Canada and USA Rivers",
    "Latitude": 45.983,
    "Longitude": -81.925,
    "CountryCode": "CA"
  },
  {
    "LOCODE": "N/A",
    "PortCountry": "Canada",
    "PortName": "Welland Canal",
    "PortNo": 3693,
    "PortArea": "Canada, Lake Ontario-Lake Erie",
    "PortRegion": "Canada and USA Rivers",
    "Latitude": 42.998,
    "Longitude": -79.219,
    "CountryCode": "CA"
  },
  {
    "LOCODE": "CABAD",
    "PortCountry": "Canada",
    "PortName": "Baddeck NS",
    "PortNo": 8648,
    "PortArea": "Nova Scotia Canada",
    "PortRegion": "East Coast USA and Canada New England",
    "Latitude": 46.098,
    "Longitude": -60.747,
    "CountryCode": "CA"
  },
  {
    "LOCODE": "N/A",
    "PortCountry": "Canada",
    "PortName": "Sault Ste Marie",
    "PortNo": 9139,
    "PortArea": "Soo Locks, Michigan-Ontario Canada",
    "PortRegion": "Canada and USA Rivers",
    "Latitude": 46.502,
    "Longitude": -84.335,
    "CountryCode": "CA"
  },
  {
    "LOCODE": "N/A",
    "PortCountry": "Canada",
    "PortName": "Rigolet NL",
    "PortNo": 9349,
    "PortArea": "Newfoundland-Labrador Canada",
    "PortRegion": "East Coast USA and Canada New England",
    "Latitude": 54.18,
    "Longitude": -58.429,
    "CountryCode": "CA"
  },
  {
    "LOCODE": "N/A",
    "PortCountry": "Canada",
    "PortName": "Banks Island",
    "PortNo": 9384,
    "PortArea": "Sachs Harbour, NWT Canada",
    "PortRegion": "Arctic - Antarctica",
    "Latitude": 71.985,
    "Longitude": -125.246,
    "CountryCode": "CA"
  },
  {
    "LOCODE": "N/A",
    "PortCountry": "Canada",
    "PortName": "Perce QC",
    "PortNo": 9399,
    "PortArea": "Quebec Canada",
    "PortRegion": "East Coast USA and Canada New England",
    "Latitude": 48.522,
    "Longitude": -64.212,
    "CountryCode": "CA"
  },
  {
    "LOCODE": "N/A",
    "PortCountry": "Canada",
    "PortName": "Windsor ON",
    "PortNo": 9414,
    "PortArea": "Ontario Canada",
    "PortRegion": "Canada and USA Rivers",
    "Latitude": 42.322,
    "Longitude": -83.044,
    "CountryCode": "CA"
  },
  {
    "LOCODE": "N/A",
    "PortCountry": "Canada",
    "PortName": "Parry Sound ON",
    "PortNo": 9415,
    "PortArea": "Ontario Canada",
    "PortRegion": "Canada and USA Rivers",
    "Latitude": 45.338,
    "Longitude": -80.036,
    "CountryCode": "CA"
  },
  {
    "LOCODE": "N/A",
    "PortCountry": "Canada",
    "PortName": "Coburg Island",
    "PortNo": 9418,
    "PortArea": "Nunavut Canada",
    "PortRegion": "Arctic - Antarctica",
    "Latitude": 75.925,
    "Longitude": -79.408,
    "CountryCode": "CA"
  },
  {
    "LOCODE": "N/A",
    "PortCountry": "Canada",
    "PortName": "St Lawrence Seaway",
    "PortNo": 9510,
    "PortArea": "Canada",
    "PortRegion": "Canada and USA Rivers",
    "Latitude": 48.446,
    "Longitude": -69.198,
    "CountryCode": "CA"
  },
  {
    "LOCODE": "N/A",
    "PortCountry": "Canada",
    "PortName": "Cartwright NL",
    "PortNo": 9881,
    "PortArea": "Newfoundland-Labrador Canada",
    "PortRegion": "East Coast USA and Canada New England",
    "Latitude": 53.709,
    "Longitude": -57.017,
    "CountryCode": "CA"
  },
  {
    "LOCODE": "N/A",
    "PortCountry": "Canada",
    "PortName": "Silver Islet ON",
    "PortNo": 9894,
    "PortArea": "Ontario Canada, Lake Superior",
    "PortRegion": "Canada and USA Rivers",
    "Latitude": 48.331,
    "Longitude": -88.82,
    "CountryCode": "CA"
  },
  {
    "LOCODE": "CACDO",
    "PortCountry": "Canada",
    "PortName": "Cape Dorset Island",
    "PortNo": 9974,
    "PortArea": "Nunavut Canada",
    "PortRegion": "Arctic - Antarctica",
    "Latitude": 64.234,
    "Longitude": -76.549,
    "CountryCode": "CA"
  },
  {
    "LOCODE": "N/A",
    "PortCountry": "Canada",
    "PortName": "Shelburne NS",
    "PortNo": 10101,
    "PortArea": "Nova Scotia Canada",
    "PortRegion": "East Coast USA and Canada New England",
    "Latitude": 43.758,
    "Longitude": -65.324,
    "CountryCode": "CA"
  },
  {
    "LOCODE": "N/A",
    "PortCountry": "Canada",
    "PortName": "Prince of Wales Island",
    "PortNo": 10451,
    "PortArea": "Nunavut Canada",
    "PortRegion": "Arctic - Antarctica",
    "Latitude": 72.633,
    "Longitude": -98.744,
    "CountryCode": "CA"
  },
  {
    "LOCODE": "N/A",
    "PortCountry": "Canada",
    "PortName": "Twillingate NL",
    "PortNo": 10794,
    "PortArea": "Newfoundland-Labrador Canada",
    "PortRegion": "East Coast USA and Canada New England",
    "Latitude": 49.65,
    "Longitude": -54.767,
    "CountryCode": "CA"
  },
  {
    "LOCODE": "N/A",
    "PortCountry": "Canada",
    "PortName": "Hopedale NL",
    "PortNo": 11182,
    "PortArea": "Newfoundland-Labrador Canada",
    "PortRegion": "East Coast USA and Canada New England",
    "Latitude": 55.458,
    "Longitude": -60.211,
    "CountryCode": "CA"
  },
  {
    "LOCODE": "N/A",
    "PortCountry": "Canada",
    "PortName": "Bylot Island",
    "PortNo": 11257,
    "PortArea": "Nunavut Canada",
    "PortRegion": "Arctic - Antarctica",
    "Latitude": 73.365,
    "Longitude": -79.015,
    "CountryCode": "CA"
  },
  {
    "LOCODE": "N/A",
    "PortCountry": "Canada",
    "PortName": "Bonaventure Island",
    "PortNo": 11261,
    "PortArea": "Quebec Canada",
    "PortRegion": "East Coast USA and Canada New England",
    "Latitude": 48.503,
    "Longitude": -64.172,
    "CountryCode": "CA"
  },
  {
    "LOCODE": "N/A",
    "PortCountry": "Canada",
    "PortName": "Sable Island",
    "PortNo": 11262,
    "PortArea": "Nova Scotia Canada",
    "PortRegion": "East Coast USA and Canada New England",
    "Latitude": 43.938,
    "Longitude": -59.914,
    "CountryCode": "CA"
  },
  {
    "LOCODE": "N/A",
    "PortCountry": "Canada",
    "PortName": "Happy Valley-Goose Bay NL",
    "PortNo": 11531,
    "PortArea": "Newfoundland-Labrador Canada",
    "PortRegion": "East Coast USA and Canada New England",
    "Latitude": 53.341,
    "Longitude": -60.408,
    "CountryCode": "CA"
  },
  {
    "LOCODE": "N/A",
    "PortCountry": "Canada",
    "PortName": "Nain NL",
    "PortNo": 11702,
    "PortArea": "Newfoundland-Labrador Canada",
    "PortRegion": "East Coast USA and Canada New England",
    "Latitude": 56.525,
    "Longitude": -61.675,
    "CountryCode": "CA"
  },
  {
    "LOCODE": "N/A",
    "PortCountry": "Canada",
    "PortName": "Monumental Island",
    "PortNo": 12006,
    "PortArea": "Nunavut Canada",
    "PortRegion": "Arctic - Antarctica",
    "Latitude": 63.699,
    "Longitude": -68.503,
    "CountryCode": "CA"
  },
  {
    "LOCODE": "N/A",
    "PortCountry": "Canada",
    "PortName": "Port Colborne ON",
    "PortNo": 13280,
    "PortArea": "Ontario Canada, Niagara Falls",
    "PortRegion": "Canada and USA Rivers",
    "Latitude": 42.871,
    "Longitude": -79.256,
    "CountryCode": "CA"
  },
  {
    "LOCODE": "N/A",
    "PortCountry": "Canada",
    "PortName": "Churchill MB",
    "PortNo": 13308,
    "PortArea": "Manitoba Canada",
    "PortRegion": "East Coast USA and Canada New England",
    "Latitude": 58.771,
    "Longitude": -94.177,
    "CountryCode": "CA"
  },
  {
    "LOCODE": "N/A",
    "PortCountry": "Canada",
    "PortName": "Tobermory ON",
    "PortNo": 13497,
    "PortArea": "Ontario Canada",
    "PortRegion": "Canada and USA Rivers",
    "Latitude": 45.256,
    "Longitude": -81.663,
    "CountryCode": "CA"
  },
  {
    "LOCODE": "N/A",
    "PortCountry": "Canada",
    "PortName": "L'Anse aux Meadows",
    "PortNo": 16611,
    "PortArea": "Newfoundland-Labrador Canada",
    "PortRegion": "East Coast USA and Canada New England",
    "Latitude": 51.597,
    "Longitude": -55.533,
    "CountryCode": "CA"
  },
  {
    "LOCODE": "N/A",
    "PortCountry": "Canada",
    "PortName": "Makkovik NL",
    "PortNo": 16946,
    "PortArea": "Newfoundland-Labrador Canada",
    "PortRegion": "East Coast USA and Canada New England",
    "Latitude": 55.084,
    "Longitude": -59.173,
    "CountryCode": "CA"
  },
  {
    "LOCODE": "N/A",
    "PortCountry": "Canada",
    "PortName": "Kingston ON",
    "PortNo": 17143,
    "PortArea": "Ontario Canada, Lake Ontario",
    "PortRegion": "Canada and USA Rivers",
    "Latitude": 44.234,
    "Longitude": -76.48,
    "CountryCode": "CA"
  },
  {
    "LOCODE": "N/A",
    "PortCountry": "Canada",
    "PortName": "Gananoque ON",
    "PortNo": 18386,
    "PortArea": "Ontario Canada",
    "PortRegion": "Canada and USA Rivers",
    "Latitude": 44.326,
    "Longitude": -76.163,
    "CountryCode": "CA"
  },
  {
    "LOCODE": "CACWL",
    "PortCountry": "Canada",
    "PortName": "Cornwall ON",
    "PortNo": 18403,
    "PortArea": "Ontario Canada",
    "PortRegion": "Canada and USA Rivers",
    "Latitude": 45.014,
    "Longitude": -74.743,
    "CountryCode": "CA"
  },
  {
    "LOCODE": "CAHAL",
    "PortCountry": "Canada",
    "PortName": "Halifax",
    "PortNo": 97,
    "PortArea": "Nova Scotia Canada",
    "PortRegion": "East Coast USA and Canada New England",
    "Latitude": 44.651,
    "Longitude": -63.57,
    "CountryCode": "CA"
  },
  {
    "LOCODE": "CAMTR",
    "PortCountry": "Canada",
    "PortName": "Montreal",
    "PortNo": 99,
    "PortArea": "Quebec Canada",
    "PortRegion": "East Coast USA and Canada New England",
    "Latitude": 45.507,
    "Longitude": -73.546,
    "CountryCode": "CA"
  },
  {
    "LOCODE": "CATOR",
    "PortCountry": "Canada",
    "PortName": "Toronto",
    "PortNo": 374,
    "PortArea": "Ontario Canada, Niagara Falls",
    "PortRegion": "Canada and USA Rivers",
    "Latitude": 43.64,
    "Longitude": -79.375,
    "CountryCode": "CA"
  },
  {
    "LOCODE": "CAPRR",
    "PortCountry": "Canada",
    "PortName": "Prince Rupert BC",
    "PortNo": 413,
    "PortArea": "Kaien Island Canada",
    "PortRegion": "West Coast USA and Canada",
    "Latitude": 54.297,
    "Longitude": -130.356,
    "CountryCode": "CA"
  },
  {
    "LOCODE": "CASJF",
    "PortCountry": "Canada",
    "PortName": "St Johns NL",
    "PortNo": 544,
    "PortArea": "Newfoundland-Labrador Canada",
    "PortRegion": "East Coast USA and Canada New England",
    "Latitude": 47.558,
    "Longitude": -52.712,
    "CountryCode": "CA"
  },
  {
    "LOCODE": "CAQUE",
    "PortCountry": "Canada",
    "PortName": "Quebec City",
    "PortNo": 662,
    "PortArea": "Canada",
    "PortRegion": "East Coast USA and Canada New England",
    "Latitude": 46.815,
    "Longitude": -71.201,
    "CountryCode": "CA"
  },
  {
    "LOCODE": "CACBK",
    "PortCountry": "Canada",
    "PortName": "Corner Brook NL",
    "PortNo": 664,
    "PortArea": "Newfoundland-Labrador Canada",
    "PortRegion": "East Coast USA and Canada New England",
    "Latitude": 48.962,
    "Longitude": -57.944,
    "CountryCode": "CA"
  },
  {
    "LOCODE": "CASJB",
    "PortCountry": "Canada",
    "PortName": "Saint John NB",
    "PortNo": 691,
    "PortArea": "New Brunswick Canada",
    "PortRegion": "East Coast USA and Canada New England",
    "Latitude": 45.268,
    "Longitude": -66.066,
    "CountryCode": "CA"
  },
  {
    "LOCODE": "CATRR",
    "PortCountry": "Canada",
    "PortName": "Trois-Rivieres",
    "PortNo": 692,
    "PortArea": "Quebec Canada",
    "PortRegion": "East Coast USA and Canada New England",
    "Latitude": 46.341,
    "Longitude": -72.537,
    "CountryCode": "CA"
  },
  {
    "LOCODE": "CASAG",
    "PortCountry": "Canada",
    "PortName": "Saguenay",
    "PortNo": 693,
    "PortArea": "Quebec Canada",
    "PortRegion": "East Coast USA and Canada New England",
    "Latitude": 48.43,
    "Longitude": -71.064,
    "CountryCode": "CA"
  },
  {
    "LOCODE": "CAKLY",
    "PortCountry": "Canada",
    "PortName": "Killarney ON",
    "PortNo": 699,
    "PortArea": "Ontario Canada",
    "PortRegion": "East Coast USA and Canada New England",
    "Latitude": 45.971,
    "Longitude": -81.514,
    "CountryCode": "CA"
  },
  {
    "LOCODE": "CACHA",
    "PortCountry": "Canada",
    "PortName": "Prince Edward Island",
    "PortNo": 704,
    "PortArea": "Charlottetown, Canada",
    "PortRegion": "East Coast USA and Canada New England",
    "Latitude": 46.231,
    "Longitude": -63.119,
    "CountryCode": "CA"
  },
  {
    "LOCODE": "CAGPE",
    "PortCountry": "Canada",
    "PortName": "Gaspe",
    "PortNo": 707,
    "PortArea": "Quebec Canada",
    "PortRegion": "East Coast USA and Canada New England",
    "Latitude": 48.832,
    "Longitude": -64.48,
    "CountryCode": "CA"
  },
  {
    "LOCODE": "N/A",
    "PortCountry": "Canada",
    "PortName": "Woody Point NL",
    "PortNo": 962,
    "PortArea": "Gros Morne NP, Newfoundland-Labrador Canada",
    "PortRegion": "East Coast USA and Canada New England",
    "Latitude": 49.499,
    "Longitude": -57.916,
    "CountryCode": "CA"
  },
  {
    "LOCODE": "CABCO",
    "PortCountry": "Canada",
    "PortName": "Baie-Comeau",
    "PortNo": 964,
    "PortArea": "Quebec Canada",
    "PortRegion": "East Coast USA and Canada New England",
    "Latitude": 49.233,
    "Longitude": -68.134,
    "CountryCode": "CA"
  },
  {
    "LOCODE": "CALUN",
    "PortCountry": "Canada",
    "PortName": "Lunenburg NS",
    "PortNo": 998,
    "PortArea": "Nova Scotia Canada",
    "PortRegion": "East Coast USA and Canada New England",
    "Latitude": 44.374,
    "Longitude": -64.312,
    "CountryCode": "CA"
  },
  {
    "LOCODE": "N/A",
    "PortCountry": "Canada",
    "PortName": "Madeleine-Magdalen Islands",
    "PortNo": 999,
    "PortArea": "Cap-aux Meules, Quebec Canada",
    "PortRegion": "East Coast USA and Canada New England",
    "Latitude": 47.379,
    "Longitude": -61.847,
    "CountryCode": "CA"
  },
  {
    "LOCODE": "CAHSP",
    "PortCountry": "Canada",
    "PortName": "Havre-Saint-Pierre",
    "PortNo": 1000,
    "PortArea": "Quebec Canada",
    "PortRegion": "East Coast USA and Canada New England",
    "Latitude": 50.234,
    "Longitude": -63.61,
    "CountryCode": "CA"
  },
  {
    "LOCODE": "CASEI",
    "PortCountry": "Canada",
    "PortName": "Sept-Iles",
    "PortNo": 1001,
    "PortArea": "Quebec Canada",
    "PortRegion": "East Coast USA and Canada New England",
    "Latitude": 50.201,
    "Longitude": -66.394,
    "CountryCode": "CA"
  },
  {
    "LOCODE": "GBRED",
    "PortCountry": "Canada",
    "PortName": "Red Bay NL",
    "PortNo": 1226,
    "PortArea": "Newfoundland-Labrador Canada",
    "PortRegion": "East Coast USA and Canada New England",
    "Latitude": 51.73,
    "Longitude": -56.427,
    "CountryCode": "CA"
  },
  {
    "LOCODE": "N/A",
    "PortCountry": "Canada",
    "PortName": "St Anthony NL",
    "PortNo": 1276,
    "PortArea": "Newfoundland-Labrador Canada",
    "PortRegion": "East Coast USA and Canada New England",
    "Latitude": 51.368,
    "Longitude": -55.587,
    "CountryCode": "CA"
  },
  {
    "LOCODE": "N/A",
    "PortCountry": "Canada",
    "PortName": "Devon Island",
    "PortNo": 1578,
    "PortArea": "Dundas Harbour, Nunavut Canada",
    "PortRegion": "Arctic - Antarctica",
    "Latitude": 74.976,
    "Longitude": -80.036,
    "CountryCode": "CA"
  },
  {
    "LOCODE": "N/A",
    "PortCountry": "Canada",
    "PortName": "Prince Leopold Island",
    "PortNo": 1579,
    "PortArea": "Nunavut Canada",
    "PortRegion": "Arctic - Antarctica",
    "Latitude": 74.042,
    "Longitude": -90.033,
    "CountryCode": "CA"
  },
  {
    "LOCODE": "N/A",
    "PortCountry": "Canada",
    "PortName": "Beechey Island",
    "PortNo": 1581,
    "PortArea": "Nunavut Canada",
    "PortRegion": "Arctic - Antarctica",
    "Latitude": 74.718,
    "Longitude": -91.853,
    "CountryCode": "CA"
  },
  {
    "LOCODE": "CAREB",
    "PortCountry": "Canada",
    "PortName": "Cornwallis Island",
    "PortNo": 1582,
    "PortArea": "Resolute, Nunavut Canada",
    "PortRegion": "Arctic - Antarctica",
    "Latitude": 74.697,
    "Longitude": -94.83,
    "CountryCode": "CA"
  },
  {
    "LOCODE": "CAYCB",
    "PortCountry": "Canada",
    "PortName": "Victoria Island",
    "PortNo": 1586,
    "PortArea": "Cambridge Bay, Nunavut Canada",
    "PortRegion": "Arctic - Antarctica",
    "Latitude": 69.112,
    "Longitude": -105.064,
    "CountryCode": "CA"
  },
  {
    "LOCODE": "CATUK",
    "PortCountry": "Canada",
    "PortName": "Tuktoyaktuk",
    "PortNo": 1591,
    "PortArea": "NWT Canada",
    "PortRegion": "Arctic - Antarctica",
    "Latitude": 69.445,
    "Longitude": -133.034,
    "CountryCode": "CA"
  },
  {
    "LOCODE": "CAHLI",
    "PortCountry": "Canada",
    "PortName": "Herschel Island",
    "PortNo": 1592,
    "PortArea": "Yukon Canada",
    "PortRegion": "Arctic - Antarctica",
    "Latitude": 69.583,
    "Longitude": -139.222,
    "CountryCode": "CA"
  },
  {
    "LOCODE": "CAIQL",
    "PortCountry": "Canada",
    "PortName": "Baffin Island",
    "PortNo": 1663,
    "PortArea": "Nunavut Canada",
    "PortRegion": "Arctic - Antarctica",
    "Latitude": 66.411,
    "Longitude": -69.747,
    "CountryCode": "CA"
  },
  {
    "LOCODE": "N/A",
    "PortCountry": "Canada",
    "PortName": "Akpatok Island",
    "PortNo": 1668,
    "PortArea": "Nunavut Canada",
    "PortRegion": "Arctic - Antarctica",
    "Latitude": 60.37,
    "Longitude": -68.24,
    "CountryCode": "CA"
  },
  {
    "LOCODE": "N/A",
    "PortCountry": "Canada",
    "PortName": "Battle Harbour NL",
    "PortNo": 1669,
    "PortArea": "Newfoundland-Labrador Canada",
    "PortRegion": "East Coast USA and Canada New England",
    "Latitude": 52.274,
    "Longitude": -55.586,
    "CountryCode": "CA"
  },
  {
    "LOCODE": "CVRAI",
    "PortCountry": "Cape_Verde",
    "PortName": "Praia",
    "PortNo": 722,
    "PortArea": "Santiago Island Cape Verde",
    "PortRegion": "Africa - Indian Ocean Islands",
    "Latitude": 14.917,
    "Longitude": -23.505,
    "CountryCode": "CV"
  },
  {
    "LOCODE": "CVMIN",
    "PortCountry": "Cape_Verde",
    "PortName": "Mindelo",
    "PortNo": 593,
    "PortArea": "Sao Vicente Island Cape Verde",
    "PortRegion": "Africa - Indian Ocean Islands",
    "Latitude": 16.891,
    "Longitude": -24.988,
    "CountryCode": "CV"
  },
  {
    "LOCODE": "N/A",
    "PortCountry": "Cape_Verde",
    "PortName": "Sao Nicolau Island",
    "PortNo": 2543,
    "PortArea": "Tarrafal, Cape Verde",
    "PortRegion": "Africa - Indian Ocean Islands",
    "Latitude": 16.568,
    "Longitude": -24.359,
    "CountryCode": "CV"
  },
  {
    "LOCODE": "N/A",
    "PortCountry": "Cape_Verde",
    "PortName": "Brava Island",
    "PortNo": 2546,
    "PortArea": "Furna, Cape Verde",
    "PortRegion": "Africa - Indian Ocean Islands",
    "Latitude": 14.89,
    "Longitude": -24.678,
    "CountryCode": "CV"
  },
  {
    "LOCODE": "ITIOI",
    "PortCountry": "Cape_Verde",
    "PortName": "Maio Island",
    "PortNo": 2548,
    "PortArea": "Porto Ingles, Cape Verde",
    "PortRegion": "Africa - Indian Ocean Islands",
    "Latitude": 15.136,
    "Longitude": -23.219,
    "CountryCode": "CV"
  },
  {
    "LOCODE": "N/A",
    "PortCountry": "Cape_Verde",
    "PortName": "Boa Vista Island",
    "PortNo": 3289,
    "PortArea": "Sal Rei, Cape Verde",
    "PortRegion": "Africa - Indian Ocean Islands",
    "Latitude": 16.179,
    "Longitude": -22.917,
    "CountryCode": "CV"
  },
  {
    "LOCODE": "N/A",
    "PortCountry": "Cape_Verde",
    "PortName": "Sal Island",
    "PortNo": 8196,
    "PortArea": "Palmeira, Cape Verde",
    "PortRegion": "Africa - Indian Ocean Islands",
    "Latitude": 16.757,
    "Longitude": -22.982,
    "CountryCode": "CV"
  },
  {
    "LOCODE": "N/A",
    "PortCountry": "Cape_Verde",
    "PortName": "Fogo Island",
    "PortNo": 9183,
    "PortArea": "Sao Filipe, Cape Verde",
    "PortRegion": "Africa - Indian Ocean Islands",
    "Latitude": 16,
    "Longitude": -24,
    "CountryCode": "CV"
  },
  {
    "LOCODE": "CVPON",
    "PortCountry": "Cape_Verde",
    "PortName": "Santo Antao Island",
    "PortNo": 1310,
    "PortArea": "Porto Novo, Cape Verde",
    "PortRegion": "Africa - Indian Ocean Islands",
    "Latitude": 17.02,
    "Longitude": -25.059,
    "CountryCode": "CV"
  },
  {
    "LOCODE": "USGGE",
    "PortCountry": "Cayman_Islands",
    "PortName": "Grand Cayman Island",
    "PortNo": 25,
    "PortArea": "George Town Harbour",
    "PortRegion": "Bahamas - Caribbean - Bermuda",
    "Latitude": 19.297,
    "Longitude": -81.346,
    "CountryCode": "KY"
  },
  {
    "LOCODE": "CLPCH",
    "PortCountry": "Chile",
    "PortName": "Puerto Chacabuco",
    "PortNo": 429,
    "PortArea": "Chile",
    "PortRegion": "South America",
    "Latitude": -45.466,
    "Longitude": -72.823,
    "CountryCode": "CL"
  },
  {
    "LOCODE": "N/A",
    "PortCountry": "Chile",
    "PortName": "Alexander Selkirk Island",
    "PortNo": 10628,
    "PortArea": "Chile",
    "PortRegion": "South America",
    "Latitude": -33.765,
    "Longitude": -80.785,
    "CountryCode": "CL"
  },
  {
    "LOCODE": "CLCQQ",
    "PortCountry": "Chile",
    "PortName": "Coquimbo",
    "PortNo": 435,
    "PortArea": "La Serena, Chile",
    "PortRegion": "South America",
    "Latitude": -29.945,
    "Longitude": -71.336,
    "CountryCode": "CL"
  },
  {
    "LOCODE": "CLPUQ",
    "PortCountry": "Chile",
    "PortName": "Punta Arenas",
    "PortNo": 431,
    "PortArea": "Chile Antarctica",
    "PortRegion": "Arctic - Antarctica",
    "Latitude": -53.131,
    "Longitude": -70.895,
    "CountryCode": "CL"
  },
  {
    "LOCODE": "N/A",
    "PortCountry": "Chile",
    "PortName": "Puerto Eden",
    "PortNo": 11166,
    "PortArea": "Wellington Island Chile",
    "PortRegion": "South America",
    "Latitude": -49.126,
    "Longitude": -74.413,
    "CountryCode": "CL"
  },
  {
    "LOCODE": "N/A",
    "PortCountry": "Chile",
    "PortName": "Robinson Crusoe Island",
    "PortNo": 426,
    "PortArea": "Chile",
    "PortRegion": "South America",
    "Latitude": -33.635,
    "Longitude": -78.832,
    "CountryCode": "CL"
  },
  {
    "LOCODE": "CLPMC",
    "PortCountry": "Chile",
    "PortName": "Puerto Montt",
    "PortNo": 428,
    "PortArea": "Chile",
    "PortRegion": "South America",
    "Latitude": -41.475,
    "Longitude": -72.938,
    "CountryCode": "CL"
  },
  {
    "LOCODE": "CLSAI",
    "PortCountry": "Chile",
    "PortName": "San Antonio",
    "PortNo": 9465,
    "PortArea": "Chile",
    "PortRegion": "South America",
    "Latitude": -33.596,
    "Longitude": -71.619,
    "CountryCode": "CL"
  },
  {
    "LOCODE": "CLANF",
    "PortCountry": "Chile",
    "PortName": "Antofagasta",
    "PortNo": 1680,
    "PortArea": "Chile",
    "PortRegion": "South America",
    "Latitude": -23.645,
    "Longitude": -70.406,
    "CountryCode": "CL"
  },
  {
    "LOCODE": "N/A",
    "PortCountry": "Chile",
    "PortName": "Pan de Azucar Island",
    "PortNo": 1681,
    "PortArea": "Chile",
    "PortRegion": "South America",
    "Latitude": -26.156,
    "Longitude": -70.686,
    "CountryCode": "CL"
  },
  {
    "LOCODE": "N/A",
    "PortCountry": "Chile",
    "PortName": "Chanaral Island",
    "PortNo": 1682,
    "PortArea": "Chile",
    "PortRegion": "South America",
    "Latitude": -29.033,
    "Longitude": -71.578,
    "CountryCode": "CL"
  },
  {
    "LOCODE": "CLZAL",
    "PortCountry": "Chile",
    "PortName": "Niebla-Valdivia",
    "PortNo": 1683,
    "PortArea": "Chile",
    "PortRegion": "South America",
    "Latitude": -39.863,
    "Longitude": -73.326,
    "CountryCode": "CL"
  },
  {
    "LOCODE": "CLPNT",
    "PortCountry": "Chile",
    "PortName": "Puerto Natales",
    "PortNo": 1685,
    "PortArea": "Chile",
    "PortRegion": "South America",
    "Latitude": -51.73,
    "Longitude": -72.517,
    "CountryCode": "CL"
  },
  {
    "LOCODE": "N/A",
    "PortCountry": "Chile",
    "PortName": "Puerto Williams",
    "PortNo": 2393,
    "PortArea": "Navarino Island Chile Antarctica",
    "PortRegion": "South America",
    "Latitude": -52.916,
    "Longitude": -70.568,
    "CountryCode": "CL"
  },
  {
    "LOCODE": "CLTOR",
    "PortCountry": "Chile",
    "PortName": "Caleta Tortel",
    "PortNo": 3716,
    "PortArea": "Chile Patagonia",
    "PortRegion": "South America",
    "Latitude": -47.804,
    "Longitude": -73.535,
    "CountryCode": "CL"
  },
  {
    "LOCODE": "CLIPC",
    "PortCountry": "Chile",
    "PortName": "Easter Island Chile",
    "PortNo": 425,
    "PortArea": "Hanga Roa",
    "PortRegion": "Australia - New Zealand - Pacific Ocean Islands",
    "Latitude": -27.148,
    "Longitude": -109.431,
    "CountryCode": "CL"
  },
  {
    "LOCODE": "CLVAP",
    "PortCountry": "Chile",
    "PortName": "Valparaiso-Santiago",
    "PortNo": 427,
    "PortArea": "Chile",
    "PortRegion": "South America",
    "Latitude": -33.035,
    "Longitude": -71.625,
    "CountryCode": "CL"
  },
  {
    "LOCODE": "N/A",
    "PortCountry": "Chile",
    "PortName": "Chilean Fjords",
    "PortNo": 430,
    "PortArea": "Patagonia",
    "PortRegion": "South America",
    "Latitude": -51.501,
    "Longitude": -74.011,
    "CountryCode": "CL"
  },
  {
    "LOCODE": "CLARI",
    "PortCountry": "Chile",
    "PortName": "Arica",
    "PortNo": 436,
    "PortArea": "Chile",
    "PortRegion": "South America",
    "Latitude": -18.471,
    "Longitude": -70.323,
    "CountryCode": "CL"
  },
  {
    "LOCODE": "N/A",
    "PortCountry": "Chile",
    "PortName": "Beagle Channel",
    "PortNo": 498,
    "PortArea": "Glacier Alley, Chile Patagonia",
    "PortRegion": "Arctic - Antarctica",
    "Latitude": -54.945,
    "Longitude": -68.902,
    "CountryCode": "CL"
  },
  {
    "LOCODE": "N/A",
    "PortCountry": "Chile",
    "PortName": "Strait of Magellan",
    "PortNo": 500,
    "PortArea": "Chile",
    "PortRegion": "South America",
    "Latitude": -53.733,
    "Longitude": -70.884,
    "CountryCode": "CL"
  },
  {
    "LOCODE": "N/A",
    "PortCountry": "Chile",
    "PortName": "Cape Horn",
    "PortNo": 502,
    "PortArea": "Chile Antarctica",
    "PortRegion": "Arctic - Antarctica",
    "Latitude": -55.969,
    "Longitude": -67.272,
    "CountryCode": "CL"
  },
  {
    "LOCODE": "CLWCA",
    "PortCountry": "Chile",
    "PortName": "Chiloe Island",
    "PortNo": 516,
    "PortArea": "Castro, Chile",
    "PortRegion": "South America",
    "Latitude": -42.481,
    "Longitude": -73.763,
    "CountryCode": "CL"
  },
  {
    "LOCODE": "CLIQQ",
    "PortCountry": "Chile",
    "PortName": "Iquique",
    "PortNo": 1234,
    "PortArea": "Chile",
    "PortRegion": "South America",
    "Latitude": -20.205,
    "Longitude": -70.154,
    "CountryCode": "CL"
  },
  {
    "LOCODE": "CNSHA",
    "PortCountry": "China",
    "PortName": "Shanghai",
    "PortNo": 12,
    "PortArea": "China",
    "PortRegion": "Asia",
    "Latitude": 31.401,
    "Longitude": 121.496,
    "CountryCode": "CN"
  },
  {
    "LOCODE": "HKHKG",
    "PortCountry": "China",
    "PortName": "Hong Kong",
    "PortNo": 13,
    "PortArea": "China",
    "PortRegion": "Asia",
    "Latitude": 22.307,
    "Longitude": 114.213,
    "CountryCode": "CN"
  },
  {
    "LOCODE": "CNDLC",
    "PortCountry": "China",
    "PortName": "Dalian",
    "PortNo": 163,
    "PortArea": "China",
    "PortRegion": "Asia",
    "Latitude": 38.932,
    "Longitude": 121.655,
    "CountryCode": "CN"
  },
  {
    "LOCODE": "N/A",
    "PortCountry": "China",
    "PortName": "Three Gorges Yangtze River",
    "PortNo": 2285,
    "PortArea": "Qutang-Wu-Xiling, China",
    "PortRegion": "Asia Rivers",
    "Latitude": 0,
    "Longitude": 0,
    "CountryCode": "CN"
  },
  {
    "LOCODE": "N/A",
    "PortCountry": "China",
    "PortName": "Three Gorges Dam",
    "PortNo": 2288,
    "PortArea": "China, Yangtze River",
    "PortRegion": "Asia Rivers",
    "Latitude": 30.828,
    "Longitude": 111.009,
    "CountryCode": "CN"
  },
  {
    "LOCODE": "N/A",
    "PortCountry": "China",
    "PortName": "Guilin",
    "PortNo": 2293,
    "PortArea": "Li River, China",
    "PortRegion": "Asia Rivers",
    "Latitude": 25.232,
    "Longitude": 110.283,
    "CountryCode": "CN"
  },
  {
    "LOCODE": "N/A",
    "PortCountry": "China",
    "PortName": "Lhasa",
    "PortNo": 2315,
    "PortArea": "Tibet, China",
    "PortRegion": "Asia Rivers",
    "Latitude": 29.654,
    "Longitude": 91.137,
    "CountryCode": "CN"
  },
  {
    "LOCODE": "N/A",
    "PortCountry": "China",
    "PortName": "Chengdu",
    "PortNo": 2357,
    "PortArea": "China",
    "PortRegion": "Asia Rivers",
    "Latitude": 30.672,
    "Longitude": 104.079,
    "CountryCode": "CN"
  },
  {
    "LOCODE": "N/A",
    "PortCountry": "China",
    "PortName": "Suzhou",
    "PortNo": 2846,
    "PortArea": "China, Yangtze River",
    "PortRegion": "Asia",
    "Latitude": 29.987,
    "Longitude": 122.379,
    "CountryCode": "CN"
  },
  {
    "LOCODE": "N/A",
    "PortCountry": "China",
    "PortName": "Lesser Three Gorges",
    "PortNo": 2960,
    "PortArea": "Daning River, China",
    "PortRegion": "Asia Rivers",
    "Latitude": 29.692,
    "Longitude": 103.759,
    "CountryCode": "CN"
  },
  {
    "LOCODE": "CNJGZ",
    "PortCountry": "China",
    "PortName": "Jingzhou",
    "PortNo": 3002,
    "PortArea": "China, Yangtze River",
    "PortRegion": "Asia Rivers",
    "Latitude": 30.334,
    "Longitude": 112.214,
    "CountryCode": "CN"
  },
  {
    "LOCODE": "CNYUY",
    "PortCountry": "China",
    "PortName": "Yueyang",
    "PortNo": 3003,
    "PortArea": "Yangtze-Dongting Lake, China",
    "PortRegion": "Asia Rivers",
    "Latitude": 29.364,
    "Longitude": 113.128,
    "CountryCode": "CN"
  },
  {
    "LOCODE": "MOMFM",
    "PortCountry": "China",
    "PortName": "Macau",
    "PortNo": 3006,
    "PortArea": "China",
    "PortRegion": "Asia",
    "Latitude": 22.164,
    "Longitude": 113.571,
    "CountryCode": "CN"
  },
  {
    "LOCODE": "CNLYG",
    "PortCountry": "China",
    "PortName": "Lianyungang",
    "PortNo": 3421,
    "PortArea": "China",
    "PortRegion": "Asia",
    "Latitude": 34.757,
    "Longitude": 119.428,
    "CountryCode": "CN"
  },
  {
    "LOCODE": "N/A",
    "PortCountry": "China",
    "PortName": "Beijing",
    "PortNo": 3726,
    "PortArea": "China",
    "PortRegion": "Asia Rivers",
    "Latitude": 39.904,
    "Longitude": 116.407,
    "CountryCode": "CN"
  },
  {
    "LOCODE": "N/A",
    "PortCountry": "China",
    "PortName": "Shibaozhai",
    "PortNo": 3731,
    "PortArea": "China, Yangtze River",
    "PortRegion": "Asia Rivers",
    "Latitude": 30.434,
    "Longitude": 108.168,
    "CountryCode": "CN"
  },
  {
    "LOCODE": "CNSZX",
    "PortCountry": "China",
    "PortName": "Shenzhen",
    "PortNo": 11271,
    "PortArea": "Shekou, China",
    "PortRegion": "Asia",
    "Latitude": 22.506,
    "Longitude": 113.905,
    "CountryCode": "CN"
  },
  {
    "LOCODE": "CNZOS",
    "PortCountry": "China",
    "PortName": "Ningbo-Zhoushan",
    "PortNo": 13305,
    "PortArea": "China",
    "PortRegion": "Asia",
    "Latitude": 29.99,
    "Longitude": 122.201,
    "CountryCode": "CN"
  },
  {
    "LOCODE": "CNSYX",
    "PortCountry": "China",
    "PortName": "Sanya",
    "PortNo": 7,
    "PortArea": "China",
    "PortRegion": "Asia",
    "Latitude": 18.24,
    "Longitude": 109.491,
    "CountryCode": "CN"
  },
  {
    "LOCODE": "CNTSN",
    "PortCountry": "China",
    "PortName": "Tianjin",
    "PortNo": 9,
    "PortArea": "Beijing, China",
    "PortRegion": "Asia",
    "Latitude": 38.985,
    "Longitude": 117.744,
    "CountryCode": "CN"
  },
  {
    "LOCODE": "CNTAO",
    "PortCountry": "China",
    "PortName": "Qingdao",
    "PortNo": 324,
    "PortArea": "China",
    "PortRegion": "Asia",
    "Latitude": 36.075,
    "Longitude": 120.307,
    "CountryCode": "CN"
  },
  {
    "LOCODE": "CNYNT",
    "PortCountry": "China",
    "PortName": "Yantai",
    "PortNo": 387,
    "PortArea": "China",
    "PortRegion": "Asia",
    "Latitude": 37.562,
    "Longitude": 121.391,
    "CountryCode": "CN"
  },
  {
    "LOCODE": "CNXMN",
    "PortCountry": "China",
    "PortName": "Xiamen",
    "PortNo": 535,
    "PortArea": "China",
    "PortRegion": "Asia",
    "Latitude": 24.484,
    "Longitude": 118.086,
    "CountryCode": "CN"
  },
  {
    "LOCODE": "N/A",
    "PortCountry": "China",
    "PortName": "Xian",
    "PortNo": 929,
    "PortArea": "Wei River, China",
    "PortRegion": "Asia Rivers",
    "Latitude": 34.351,
    "Longitude": 108.991,
    "CountryCode": "CN"
  },
  {
    "LOCODE": "CNCKG",
    "PortCountry": "China",
    "PortName": "Chongqing",
    "PortNo": 1174,
    "PortArea": "China",
    "PortRegion": "Asia Rivers",
    "Latitude": 29.563,
    "Longitude": 106.552,
    "CountryCode": "CN"
  },
  {
    "LOCODE": "CNYIC",
    "PortCountry": "China",
    "PortName": "Yichang",
    "PortNo": 1176,
    "PortArea": "China, Yangtze River",
    "PortRegion": "Asia Rivers",
    "Latitude": 30.709,
    "Longitude": 111.29,
    "CountryCode": "CN"
  },
  {
    "LOCODE": "CNWUH",
    "PortCountry": "China",
    "PortName": "Wuhan",
    "PortNo": 1177,
    "PortArea": "China, Yangtze River",
    "PortRegion": "Asia Rivers",
    "Latitude": 30.614,
    "Longitude": 114.298,
    "CountryCode": "CN"
  },
  {
    "LOCODE": "CNCAN",
    "PortCountry": "China",
    "PortName": "Nansha-Guangzhou",
    "PortNo": 1395,
    "PortArea": "China",
    "PortRegion": "Asia",
    "Latitude": 22.77,
    "Longitude": 113.599,
    "CountryCode": "CN"
  },
  {
    "LOCODE": "CNHAK",
    "PortCountry": "China",
    "PortName": "Haikou",
    "PortNo": 1396,
    "PortArea": "Haidian Island China",
    "PortRegion": "Asia",
    "Latitude": 20.031,
    "Longitude": 110.271,
    "CountryCode": "CN"
  },
  {
    "LOCODE": "COSMR",
    "PortCountry": "Colombia",
    "PortName": "Santa Marta Colombia",
    "PortNo": 608,
    "PortArea": "N/A",
    "PortRegion": "Bahamas - Caribbean - Bermuda",
    "Latitude": 11.25,
    "Longitude": -74.217,
    "CountryCode": "CO"
  },
  {
    "LOCODE": "COCTG",
    "PortCountry": "Colombia",
    "PortName": "Cartagena Colombia",
    "PortNo": 3733,
    "PortArea": "N/A",
    "PortRegion": "Bahamas - Caribbean - Bermuda",
    "Latitude": 10.422,
    "Longitude": -75.543,
    "CountryCode": "CO"
  },
  {
    "LOCODE": "COCVE",
    "PortCountry": "Colombia",
    "PortName": "Covenas Colombia",
    "PortNo": 16577,
    "PortArea": "N/A",
    "PortRegion": "Bahamas - Caribbean - Bermuda",
    "Latitude": 9.407,
    "Longitude": -75.689,
    "CountryCode": "CO"
  },
  {
    "LOCODE": "COBAQ",
    "PortCountry": "Colombia",
    "PortName": "Barranquilla Colombia",
    "PortNo": 18120,
    "PortArea": "N/A",
    "PortRegion": "Bahamas - Caribbean - Bermuda",
    "Latitude": 10.966,
    "Longitude": -74.769,
    "CountryCode": "CO"
  },
  {
    "LOCODE": "COBUN",
    "PortCountry": "Colombia",
    "PortName": "Buenaventura Colombia",
    "PortNo": 18443,
    "PortArea": "N/A",
    "PortRegion": "South America",
    "Latitude": 3.888,
    "Longitude": -77.065,
    "CountryCode": "CO"
  },
  {
    "LOCODE": "COADZ",
    "PortCountry": "Colombia",
    "PortName": "San Andres Island Colombia",
    "PortNo": 1269,
    "PortArea": "N/A",
    "PortRegion": "Bahamas - Caribbean - Bermuda",
    "Latitude": 12.581,
    "Longitude": -81.691,
    "CountryCode": "CO"
  },
  {
    "LOCODE": "N/A",
    "PortCountry": "Colombia",
    "PortName": "Providencia Island Colombia",
    "PortNo": 1301,
    "PortArea": "N/A",
    "PortRegion": "Bahamas - Caribbean - Bermuda",
    "Latitude": 13.382,
    "Longitude": -81.368,
    "CountryCode": "CO"
  },
  {
    "LOCODE": "N/A",
    "PortCountry": "Cook_Islands",
    "PortName": "Palmerston Island",
    "PortNo": 9968,
    "PortArea": "Cook Islands NZ",
    "PortRegion": "Australia - New Zealand - Pacific Ocean Islands",
    "Latitude": -18.042,
    "Longitude": -163.147,
    "CountryCode": "CK"
  },
  {
    "LOCODE": "CKAIT",
    "PortCountry": "Cook_Islands",
    "PortName": "Aitutaki Island",
    "PortNo": 421,
    "PortArea": "Cook Islands NZ",
    "PortRegion": "Australia - New Zealand - Pacific Ocean Islands",
    "Latitude": -18.859,
    "Longitude": -159.782,
    "CountryCode": "CK"
  },
  {
    "LOCODE": "N/A",
    "PortCountry": "Cook_Islands",
    "PortName": "Rarotonga Island",
    "PortNo": 422,
    "PortArea": "Avarua, Cook Islands NZ",
    "PortRegion": "Australia - New Zealand - Pacific Ocean Islands",
    "Latitude": -21.229,
    "Longitude": -159.776,
    "CountryCode": "CK"
  },
  {
    "LOCODE": "CRLIO",
    "PortCountry": "Costa_Rica",
    "PortName": "Puerto Limon",
    "PortNo": 443,
    "PortArea": "Costa Rica",
    "PortRegion": "Bahamas - Caribbean - Bermuda",
    "Latitude": 9.989,
    "Longitude": -83.025,
    "CountryCode": "CR"
  },
  {
    "LOCODE": "CRPAS",
    "PortCountry": "Costa_Rica",
    "PortName": "Puntarenas",
    "PortNo": 470,
    "PortArea": "Puerto Caldera, Costa Rica",
    "PortRegion": "Hawaii - Mexico - Panama Canal",
    "Latitude": 9.979,
    "Longitude": -84.833,
    "CountryCode": "CR"
  },
  {
    "LOCODE": "N/A",
    "PortCountry": "Costa_Rica",
    "PortName": "Playas del Coco",
    "PortNo": 1749,
    "PortArea": "Costa Rica",
    "PortRegion": "Hawaii - Mexico - Panama Canal",
    "Latitude": 9.77,
    "Longitude": -84.892,
    "CountryCode": "CR"
  },
  {
    "LOCODE": "N/A",
    "PortCountry": "Costa_Rica",
    "PortName": "Herradura",
    "PortNo": 2790,
    "PortArea": "Los Suenos, Costa Rica",
    "PortRegion": "Hawaii - Mexico - Panama Canal",
    "Latitude": 9.651,
    "Longitude": -84.665,
    "CountryCode": "CR"
  },
  {
    "LOCODE": "N/A",
    "PortCountry": "Costa_Rica",
    "PortName": "Golfo Dulce",
    "PortNo": 9204,
    "PortArea": "Costa Rica",
    "PortRegion": "Hawaii - Mexico - Panama Canal",
    "Latitude": 8.641,
    "Longitude": -83.256,
    "CountryCode": "CR"
  },
  {
    "LOCODE": "N/A",
    "PortCountry": "Costa_Rica",
    "PortName": "Culebra",
    "PortNo": 11047,
    "PortArea": "Costa Rica, Marina Papagayo",
    "PortRegion": "Hawaii - Mexico - Panama Canal",
    "Latitude": 10.643,
    "Longitude": -85.654,
    "CountryCode": "CR"
  },